Time,header.seq,header.stamp.secs,header.stamp.nsecs,header.frame_id,latitude,longitude,altitude,utm_easting,utm_northing,zone,letter,hdop,gpgga_read,current_time.secs,current_time.nsecs
1711657002.2546206,4,1711657002,247928380,,42.337088333333334,-71.08738,0.0,328039.9225325837,4689313.99171649,19,T,3.7,"$GPGGA,201642.000,4220.2253,N,07105.2428,W,1,05,3.7,16.2,M,-33.8,M,,0000*51
",1711675001,999999761
1711657003.2550163,5,1711657003,247841835,,42.337086666666664,-71.08737833333333,0.0,328040.0552967042,4689313.803275358,19,T,3.8,"$GPGGA,201643.000,4220.2252,N,07105.2427,W,1,04,3.8,16.2,M,-33.8,M,,0000*50
",1711675002,999999523
1711657004.2673292,6,1711657004,246653079,,42.337086666666664,-71.08737833333333,0.0,328040.0552967042,4689313.803275358,19,T,3.8,"$GPGGA,201644.000,4220.2252,N,07105.2427,W,1,04,3.8,16.1,M,-33.8,M,,0000*54
",1711675003,999999523
1711657005.2689347,7,1711657005,260493755,,42.337085,-71.08737666666667,0.0,328040.188060832,4689313.614834229,19,T,3.7,"$GPGGA,201645.000,4220.2251,N,07105.2426,W,1,05,3.7,16.1,M,-33.8,M,,0000*59
",1711675004,999999761
1711657006.2555423,8,1711657006,248119831,,45.67041666666667,-71.08737666666667,0.0,337413.4223308936,5059548.609304367,19,T,3.7,"$GPGGA,201646.000,4220.2250,N,07105.2426,W,1,05,3.7,16.1,M,-33.8,M,,0000*5B
",1711675005,999999761
1711657007.2686436,9,1711657007,260802745,,45.67041666666667,-71.08737666666667,0.0,337413.4223308936,5059548.609304367,19,T,3.7,"$GPGGA,201647.000,4220.2250,N,07105.2426,W,1,05,3.7,16.1,M,-33.8,M,,0000*5A
",1711675006,999999761
1711657008.2711356,10,1711657008,248325109,,42.33708166666667,-71.087375,0.0,328040.31628199253,4689313.241322495,19,T,3.7,"$GPGGA,201648.000,4220.2249,N,07105.2425,W,1,05,3.7,16.1,M,-33.8,M,,0000*5E
",1711675007,999999284
1711657009.2694054,11,1711657009,248558998,,42.33708166666667,-71.087375,0.0,328040.31628199253,4689313.241322495,19,T,3.7,"$GPGGA,201649.000,4220.2249,N,07105.2425,W,1,05,3.7,16.1,M,-33.8,M,,0000*5F
",1711675008,999999046
1711657010.2712016,12,1711657010,248064756,,45.6704,-71.087365,0.0,337414.2827667904,5059546.73396575,19,T,3.6,"$GPGGA,201650.000,4220.2240,N,07105.2419,W,1,05,3.6,15.7,M,-33.8,M,,0000*55
",1711675009,999999284
1711657011.2569427,13,1711657011,249081611,,42.33705166666667,-71.08736,0.0,328041.47027310473,4689309.879717,19,T,3.6,"$GPGGA,201651.000,4220.2231,N,07105.2416,W,1,05,3.6,15.4,M,-33.8,M,,0000*5E
",1711675010,999999761
1711657012.2523026,14,1711657012,244480609,,42.33703166666667,-71.08735666666666,0.0,328041.69037227996,4689307.652128717,19,T,3.6,"$GPGGA,201652.000,4220.2219,N,07105.2414,W,1,05,3.6,15.1,M,-33.8,M,,0000*50
",1711675012,0
1711657013.2751756,15,1711657013,248899221,,42.33701,-71.08735166666666,0.0,328042.0432360004,4689305.236099365,19,T,3.6,"$GPGGA,201653.000,4220.2206,N,07105.2411,W,1,05,3.6,14.8,M,-33.8,M,,0000*52
",1711675012,999999284
1711657014.2711344,16,1711657014,248214721,,42.33698833333333,-71.08734333333334,0.0,328042.6707146734,4689302.813329119,19,T,3.6,"$GPGGA,201654.000,4220.2193,N,07105.2406,W,1,05,3.6,14.5,M,-33.8,M,,0000*51
",1711675013,999999284
1711657015.272826,17,1711657015,265543937,,42.336965,-71.08732666666667,0.0,328043.98018783523,4689300.188636139,19,T,3.6,"$GPGGA,201655.000,4220.2179,N,07105.2396,W,1,05,3.6,14.3,M,-33.8,M,,0000*5C
",1711675014,999999761
1711657016.2556555,18,1711657016,247968196,,42.336938333333336,-71.08729333333333,0.0,328046.65365071374,4689297.160098297,19,T,3.6,"$GPGGA,201656.000,4220.2163,N,07105.2376,W,1,05,3.6,13.9,M,-33.8,M,,0000*57
",1711675015,999999761
1711657017.273961,19,1711657017,247838735,,42.33693,-71.08725833333334,0.0,328049.5143932305,4689296.16396788,19,T,3.6,"$GPGGA,201657.000,4220.2158,N,07105.2355,W,1,05,3.6,13.7,M,-33.8,M,,0000*51
",1711675016,999999284
1711657018.2549806,20,1711657018,247607469,,42.336915,-71.08720666666666,0.0,328053.73004079895,4689294.393853708,19,T,3.6,"$GPGGA,201658.000,4220.2149,N,07105.2324,W,1,05,3.6,13.2,M,-33.8,M,,0000*5D
",1711675017,999999761
1711657019.2725086,21,1711657019,248785734,,42.33692166666667,-189.4205,0.0,0.0,0.0,0,,3.6,"$GPGGA,201659.000,4220.2153,N,07105.2300,W,1,05,3.6,12.9,M,-33.8,M,,0000*5B
",1711675018,999999284
1711657020.2570472,22,1711657020,248764276,,45.67026666666667,-71.08712333333334,0.0,337432.7199321857,5059531.4300581915,19,T,3.6,"$GPGGA,201700.000,4220.2160,N,07105.2274,W,1,05,3.6,12.6,M,-33.8,M,,0000*5B
",1711675019,999999523
1711657021.2578135,23,1711657021,248732089,,42.33696833333333,-71.08708666666666,0.0,328063.76153421553,4689300.073462736,19,T,3.6,"$GPGGA,201701.000,4220.2181,N,07105.2252,W,1,05,3.6,12.4,M,-33.8,M,,0000*53
",1711675020,999999761
1711657022.2503548,24,1711657022,242976427,,45.67035,-71.087055,0.0,337438.2837495216,5059540.549541021,19,T,3.6,"$GPGGA,201702.000,4220.2210,N,07105.2233,W,1,05,3.6,12.4,M,-33.8,M,,0000*5C
",1711675021,999999523
1711657023.2556937,25,1711657023,248411655,,42.33706166666666,-71.08701833333333,0.0,328069.64549900277,4689310.299246963,19,T,3.6,"$GPGGA,201703.000,4220.2237,N,07105.2211,W,1,05,3.6,12.4,M,-33.8,M,,0000*58
",1711675022,999999523
1711657024.2768364,26,1711657024,251200437,,42.337111666666665,-71.08698166666667,0.0,328072.8025201404,4689315.777227193,19,T,3.6,"$GPGGA,201704.000,4220.2267,N,07105.2189,W,1,05,3.6,12.5,M,-33.8,M,,0000*59
",1711675023,999999284
1711657025.2563543,27,1711657025,248886108,,42.337163333333336,-71.08694166666666,0.0,328076.2386925346,4689321.4335397165,19,T,3.6,"$GPGGA,201705.000,4220.2298,N,07105.2165,W,1,05,3.6,12.7,M,-33.8,M,,0000*58
",1711675025,0
1711657026.2560923,28,1711657026,249044656,,42.33721833333333,-71.08690333333334,0.0,328079.54663675313,4689327.46336478,19,T,3.6,"$GPGGA,201706.000,4220.2331,N,07105.2142,W,1,05,3.6,12.9,M,-33.8,M,,0000*52
",1711675025,999999761
1711657027.2584865,29,1711657027,249643087,,42.337285,-71.08687166666667,0.0,328082.33714210097,4689334.802164353,19,T,3.6,"$GPGGA,201707.000,4220.2371,N,07105.2123,W,1,05,3.6,13.2,M,-33.8,M,,0000*5A
",1711675026,999999761
1711657028.2707906,30,1711657028,244520664,,42.33737333333333,-71.08685333333334,0.0,328084.08823417785,4689344.573840213,19,T,3.6,"$GPGGA,201708.000,4220.2424,N,07105.2112,W,1,05,3.6,13.9,M,-33.8,M,,0000*5B
",1711675027,999999284
1711657029.2657692,31,1711657029,248614311,,42.33745833333333,-71.08683166666667,0.0,328086.1048513537,4689353.968635993,19,T,3.6,"$GPGGA,201709.000,4220.2475,N,07105.2099,W,1,05,3.6,14.6,M,-33.8,M,,0000*54
",1711675028,999999284
1711657030.2556183,32,1711657030,246911048,,42.337558333333334,-71.08682166666667,0.0,328087.2011976365,4689365.052655191,19,T,3.7,"$GPGGA,201710.000,4220.2535,N,07105.2093,W,1,04,3.7,15.7,M,-33.8,M,,0000*53
",1711675029,999999761
1711657031.2540796,33,1711657031,246870756,,42.33766166666667,-71.08681333333334,0.0,328088.1693195775,4689376.510185494,19,T,3.7,"$GPGGA,201711.000,4220.2597,N,07105.2088,W,1,04,3.7,16.8,M,-33.8,M,,0000*5C
",1711675030,999999761
1711657032.25412,34,1711657032,246196269,,42.337736666666665,-71.08679166666667,0.0,328090.15867484617,4689384.794558725,19,T,3.7,"$GPGGA,201712.000,4220.2642,N,07105.2075,W,1,04,3.7,17.7,M,-33.8,M,,0000*58
",1711675031,999999761
1711657033.2536173,35,1711657033,246178388,,42.33777666666667,-71.086755,0.0,328093.2884004298,4689389.162123605,19,T,3.7,"$GPGGA,201713.000,4220.2666,N,07105.2053,W,1,04,3.7,18.1,M,-33.8,M,,0000*52
",1711675032,999999761
1711657034.2536418,36,1711657034,246305942,,42.33779833333333,-71.08672166666666,0.0,328096.09355344134,4689391.500651858,19,T,3.7,"$GPGGA,201714.000,4220.2679,N,07105.2033,W,1,04,3.7,18.4,M,-33.8,M,,0000*58
",1711675033,999999761
1711657035.259343,37,1711657035,242146492,,42.33781,-72.75336666666666,0.0,685077.9927980176,4689728.487177932,18,T,3.7,"$GPGGA,201715.000,4220.2686,N,07105.2020,W,1,04,3.7,18.6,M,-33.8,M,,0000*59
",1711675034,999999761
1711657036.250898,38,1711657036,242627859,,42.33781166666667,-72.75335,0.0,685079.3609768533,4689728.708530238,18,T,3.7,"$GPGGA,201716.000,4220.2687,N,07105.2010,W,1,04,3.7,18.7,M,-33.8,M,,0000*59
",1711675036,0
1711657037.2592204,39,1711657037,250921010,,42.33782166666667,-71.086685,0.0,328099.1778571323,4689394.017512994,19,T,3.7,"$GPGGA,201717.000,4220.2693,N,07105.2011,W,1,04,3.7,19.1,M,-33.8,M,,0000*5B
",1711675036,999999761
1711657038.2551227,40,1711657038,247513532,,42.33783,-71.08669,0.0,328098.78864837345,4689394.952974345,19,T,3.7,"$GPGGA,201718.000,4220.2698,N,07105.2014,W,1,04,3.7,19.5,M,-33.8,M,,0000*5E
",1711675037,999999761
1711657039.2574394,41,1711657039,248475551,,42.337846666666664,-71.08669666666667,0.0,328098.2848420873,4689396.81715827,19,T,3.7,"$GPGGA,201719.000,4220.2708,N,07105.2018,W,1,04,3.7,20.0,M,-33.8,M,,0000*54
",1711675038,999999761
1711657040.256268,42,1711657040,248387575,,42.33786166666667,-71.086695,0.0,328098.4630216024,4689398.479424468,19,T,3.7,"$GPGGA,201720.000,4220.2717,N,07105.2017,W,1,04,3.7,20.4,M,-33.8,M,,0000*5B
",1711675039,999999761
1711657041.2700226,43,1711657041,247086524,,42.337873333333334,-71.08667666666666,0.0,328100.0051718388,4689399.73785535,19,T,3.7,"$GPGGA,201721.000,4220.2724,N,07105.2006,W,1,04,3.7,20.6,M,-33.8,M,,0000*58
",1711675040,999999046
1711657042.2506652,44,1711657042,242453575,,45.671216666666666,-71.08664333333333,0.0,337472.8578677382,5059635.999379844,19,T,3.7,"$GPGGA,201722.000,4220.2730,N,07105.1986,W,1,04,3.7,20.7,M,-33.8,M,,0000*5D
",1711675041,999999761
1711657043.2717054,45,1711657043,263447523,,42.337891666666664,-71.08659333333334,0.0,328106.9203960856,4689401.605165898,19,T,3.7,"$GPGGA,201723.000,4220.2735,N,07105.1956,W,1,04,3.7,20.7,M,-33.8,M,,0000*54
",1711675042,999999761
1711657044.2559426,46,1711657044,246758699,,45.67123333333333,-71.08653666666666,0.0,337481.2142335881,5059637.634494024,19,T,3.7,"$GPGGA,201724.000,4220.2740,N,07105.1922,W,1,04,3.7,20.5,M,-33.8,M,,0000*50
",1711675043,999999761
1711657045.2704,47,1711657045,262738943,,42.337905,-71.08647666666667,0.0,328116.56809921074,4689402.849889337,19,T,3.7,"$GPGGA,201725.000,4220.2743,N,07105.1886,W,1,04,3.7,20.4,M,-33.8,M,,0000*5C
",1711675044,999999761
1711657046.25024,48,1711657046,241823196,,45.67125,-71.08643166666667,0.0,337489.4407804147,5059639.273002358,19,T,3.7,"$GPGGA,201726.000,4220.2750,N,07105.1859,W,1,04,3.7,20.3,M,-33.8,M,,0000*58
",1711675045,999999761
1711657047.255186,49,1711657047,246770381,,42.33792166666667,-71.08639166666667,0.0,328123.616079535,4689404.528776459,19,T,3.7,"$GPGGA,201727.000,4220.2753,N,07105.1835,W,1,04,3.7,20.1,M,-33.8,M,,0000*52
",1711675046,999999761
1711657048.249043,50,1711657048,241277456,,42.33792833333333,-71.08636166666666,0.0,328126.1057379817,4689405.208418582,19,T,3.7,"$GPGGA,201728.000,4220.2757,N,07105.1817,W,1,04,3.7,20.1,M,-33.8,M,,0000*59
",1711675047,999999761
1711657049.2532742,51,1711657049,245869636,,42.33793166666667,-71.08633666666667,0.0,328128.17439856404,4689405.528026854,19,T,3.7,"$GPGGA,201729.000,4220.2759,N,07105.1802,W,1,04,3.7,20.0,M,-33.8,M,,0000*53
",1711675048,999999523
1711657050.269776,52,1711657050,262469530,,42.33794,-71.08630833333333,0.0,328130.53129161627,4689406.396109995,19,T,3.7,"$GPGGA,201730.000,4220.2764,N,07105.1785,W,1,04,3.7,19.9,M,-33.8,M,,0000*56
",1711675049,999999761
1711657051.2718768,53,1711657051,263209581,,42.33796,-71.08627666666666,0.0,328133.1945791212,4689408.552950771,19,T,3.7,"$GPGGA,201731.000,4220.2776,N,07105.1766,W,1,04,3.7,19.9,M,-33.8,M,,0000*59
",1711675050,999999761
1711657052.255546,54,1711657052,246723651,,42.337981666666664,-71.086235,0.0,328136.6862364751,4689410.874651006,19,T,3.7,"$GPGGA,201732.000,4220.2789,N,07105.1741,W,1,04,3.7,19.8,M,-33.8,M,,0000*5E
",1711675051,999999761
1711657053.2520385,55,1711657053,241702079,,42.338013333333336,-71.086185,0.0,328140.8916597929,4689414.289933628,19,T,3.7,"$GPGGA,201733.000,4220.2808,N,07105.1711,W,1,04,3.7,19.9,M,-33.8,M,,0000*5D
",1711675052,999999761
1711657054.2496605,56,1711657054,241831541,,42.338051666666665,-71.08613,0.0,328145.5271554406,4689418.435395615,19,T,3.7,"$GPGGA,201734.000,4220.2831,N,07105.1678,W,1,04,3.7,20.0,M,-33.8,M,,0000*5D
",1711675053,999999284
1711657055.2714937,57,1711657055,262994289,,42.33808,-71.08606166666667,0.0,328151.23384371697,4689421.4434894845,19,T,3.7,"$GPGGA,201735.000,4220.2848,N,07105.1637,W,1,04,3.7,19.8,M,-33.8,M,,0000*5B
",1711675054,999999761
1711657056.2537675,58,1711657056,246215343,,42.33811333333333,-71.08599,0.0,328157.2287568456,4689425.000063165,19,T,3.7,"$GPGGA,201736.000,4220.2868,N,07105.1594,W,1,04,3.7,19.6,M,-33.8,M,,0000*5E
",1711675055,999999761
1711657057.2714307,59,1711657057,263440608,,42.33815333333333,-72.75258333333333,0.0,685141.5193337296,4689768.317552064,18,T,3.7,"$GPGGA,201737.000,4220.2892,N,07105.1550,W,1,04,3.7,19.5,M,-33.8,M,,0000*51
",1711675056,999999761
1711657058.2547421,60,1711657058,246750831,,42.33821,-71.08584833333333,0.0,328169.1629752171,4689435.447864736,19,T,3.7,"$GPGGA,201738.000,4220.2926,N,07105.1509,W,1,04,3.7,19.7,M,-33.8,M,,0000*5E
",1711675057,999999761
1711657059.2611432,61,1711657059,242892503,,42.338271666666664,-72.75245,0.0,685152.1564877927,4689781.748046403,18,T,3.7,"$GPGGA,201739.000,4220.2963,N,07105.1470,W,1,04,3.7,20.0,M,-33.8,M,,0000*5C
",1711675058,999999284
1711657060.2551754,62,1711657060,246442556,,112.33833333333334,-71.08572166666667,0.0,0.0,0.0,0,,3.7,"$GPGGA,201740.000,4220.3000,N,07105.1433,W,1,04,3.7,20.4,M,-33.8,M,,0000*5C
",1711675059,999999761
1711657061.2566729,63,1711657061,246168851,,42.338395,-71.08566333333333,0.0,328184.90765956533,4689455.616866307,19,T,3.7,"$GPGGA,201741.000,4220.3037,N,07105.1398,W,1,04,3.7,20.8,M,-33.8,M,,0000*53
",1711675060,999999523
1711657063.253633,64,1711657063,246510267,,42.33851166666667,-71.085545,0.0,328194.9739986076,4689468.3327060435,19,T,3.7,"$GPGGA,201743.000,4220.3107,N,07105.1327,W,1,04,3.7,21.5,M,-33.8,M,,0000*5B
",1711675062,999999523
1711657064.2562196,65,1711657064,246392726,,42.338555,-71.08546833333334,0.0,328201.40799481294,4689472.989636985,19,T,3.7,"$GPGGA,201744.048,4220.3133,N,07105.1281,W,1,04,3.7,21.6,M,-33.8,M,,0000*59
",1711675064,49999713
1711657065.2708614,66,1711657065,262411594,,42.33857,-71.085385,0.0,328208.31403846317,4689474.486903613,19,T,3.7,"$GPGGA,201745.000,4220.3142,N,07105.1231,W,1,04,3.7,21.1,M,-33.8,M,,0000*5E
",1711675064,999999761
1711657066.2530882,67,1711657066,245820760,,42.338591666666666,-71.08530166666667,0.0,328215.23823319166,4689476.724459485,19,T,3.7,"$GPGGA,201746.000,4220.3155,N,07105.1181,W,1,04,3.7,20.8,M,-33.8,M,,0000*5B
",1711675065,999999761
1711657067.2687,68,1711657067,246185541,,42.33862,-71.085225,0.0,328221.63136183587,4689479.715772794,19,T,3.7,"$GPGGA,201747.000,4220.3172,N,07105.1135,W,1,04,3.7,20.6,M,-33.8,M,,0000*5E
",1711675066,999999284
1711657068.2704108,69,1711657068,246112108,,42.33864833333333,-71.08515333333334,0.0,328227.6125737466,4689482.717192595,19,T,3.7,"$GPGGA,201748.000,4220.3189,N,07105.1092,W,1,04,3.7,20.3,M,-33.8,M,,0000*5C
",1711675067,999999046
1711657069.2706437,70,1711657069,246885538,,42.338663333333336,-72.75175,0.0,685208.6749604768,4689826.764694076,18,T,3.7,"$GPGGA,201749.000,4220.3198,N,07105.1050,W,1,04,3.7,19.8,M,-33.8,M,,0000*52
",1711675068,999999284
1711657070.254529,71,1711657070,245668172,,42.33865333333333,-71.08500666666667,0.0,328239.70891215955,4689482.976124185,19,T,3.7,"$GPGGA,201750.000,4220.3192,N,07105.1004,W,1,04,3.7,18.6,M,-33.8,M,,0000*5E
",1711675069,999999761
1711657071.2491674,72,1711657071,241864681,,42.338588333333334,-71.08490666666667,0.0,328247.7701611053,4689475.556372415,19,T,3.7,"$GPGGA,201751.000,4220.3153,N,07105.0944,W,1,04,3.7,16.2,M,-33.8,M,,0000*54
",1711675070,999999761
1711657072.2534797,73,1711657072,246016263,,42.338521666666665,-71.08482333333333,0.0,328254.4538500939,4689467.985223796,19,T,3.7,"$GPGGA,201752.000,4220.3113,N,07105.0894,W,1,04,3.7,14.1,M,-33.8,M,,0000*5E
",1711675071,999999761
1711657073.2493582,74,1711657073,240499496,,42.33842,-71.08473833333333,0.0,328261.1795735364,4689456.524232783,19,T,3.7,"$GPGGA,201753.000,4220.3052,N,07105.0843,W,1,04,3.7,11.1,M,-33.8,M,,0000*54
",1711675073,0
1711657074.2478733,75,1711657074,238367319,,42.338348333333336,-71.084685,0.0,328265.378206478,4689448.458477079,19,T,3.7,"$GPGGA,201754.000,4220.3009,N,07105.0811,W,1,04,3.7,9.2,M,-33.8,M,,0000*60
",1711675073,999999761
1711657075.2464607,76,1711657075,238885641,,42.338301666666666,-72.75131666666667,0.0,685245.4363971213,4689787.54800616,18,T,3.7,"$GPGGA,201755.000,4220.2981,N,07105.0790,W,1,04,3.7,8.4,M,-33.8,M,,0000*68
",1711675074,999999761
1711657076.2627113,77,1711657076,239182949,,42.338258333333336,-72.75128333333333,0.0,685248.3097743845,4689782.808747518,18,T,3.7,"$GPGGA,201756.000,4220.2955,N,07105.0770,W,1,04,3.7,7.7,M,-33.8,M,,0000*60
",1711675075,999999523
1711657077.2470357,78,1711657077,238594055,,42.338215,-71.08457833333334,0.0,328273.8027249987,4689433.437398022,19,T,3.7,"$GPGGA,201757.000,4220.2929,N,07105.0747,W,1,04,3.7,7.1,M,-33.8,M,,0000*68
",1711675076,999999761
1711657078.2453744,79,1711657078,238520383,,42.338168333333336,-71.084535,0.0,328277.2456124973,4689428.16790569,19,T,3.7,"$GPGGA,201758.000,4220.2901,N,07105.0721,W,1,04,3.7,6.6,M,-33.8,M,,0000*6B
",1711675077,999999761
1711657079.2552977,80,1711657079,239664077,,42.338121666666666,-71.08448833333334,0.0,328280.96311505185,4689422.891683518,19,T,3.7,"$GPGGA,201759.000,4220.2873,N,07105.0693,W,1,04,3.7,6.6,M,-33.8,M,,0000*66
",1711675078,999999761
1711657080.247005,81,1711657080,239652633,,42.338073333333334,-71.08444166666666,0.0,328284.6760867307,4689417.430392917,19,T,3.7,"$GPGGA,201800.000,4220.2844,N,07105.0665,W,1,04,3.7,7.3,M,-33.8,M,,0000*6C
",1711675079,999999761
1711657081.2469475,82,1711657081,239562988,,42.338035,-72.75106666666667,0.0,685266.815488406,4689758.481130192,18,T,3.7,"$GPGGA,201801.000,4220.2821,N,07105.0640,W,1,04,3.7,8.5,M,-33.8,M,,0000*60
",1711675080,999999761
1711657082.252276,83,1711657082,244385242,,42.33799666666667,-71.08435666666666,0.0,328291.46996014507,4689408.745493685,19,T,3.7,"$GPGGA,201802.000,4220.2798,N,07105.0614,W,1,04,3.7,8.2,M,-33.8,M,,0000*68
",1711675081,999999761
1711657083.263085,84,1711657083,246148586,,42.337965,-71.08431833333333,0.0,328294.54178596067,4689405.15174312,19,T,3.7,"$GPGGA,201803.000,4220.2779,N,07105.0591,W,1,04,3.7,6.8,M,-33.8,M,,0000*6C
",1711675082,999999761
1711657084.2480538,85,1711657084,240667343,,42.33792,-71.08427666666667,0.0,328297.85193506547,4689400.070698177,19,T,3.7,"$GPGGA,201804.000,4220.2752,N,07105.0566,W,1,04,3.7,6.3,M,-33.8,M,,0000*61
",1711675083,999999761
1711657085.2550864,86,1711657085,247848749,,42.33786833333333,-71.08422833333333,0.0,328301.693165877,4689394.235910819,19,T,3.7,"$GPGGA,201805.000,4220.2721,N,07105.0537,W,1,04,3.7,6.1,M,-33.8,M,,0000*62
",1711675084,999999761
1711657086.2446315,87,1711657086,236995697,,42.337826666666665,-71.084185,0.0,328305.14970341435,4689389.521645465,19,T,3.7,"$GPGGA,201806.000,4220.2696,N,07105.0511,W,1,04,3.7,6.1,M,-33.8,M,,0000*68
",1711675085,999999761
1711657087.261099,88,1711657087,240277528,,42.337781666666665,-71.08414333333333,0.0,328308.4598682007,4689384.440606092,19,T,3.7,"$GPGGA,201807.000,4220.2669,N,07105.0486,W,1,04,3.7,6.4,M,-33.8,M,,0000*63
",1711675086,999999523
1711657088.2479227,89,1711657088,239786863,,42.337745,-71.08410666666667,0.0,328311.3808005539,4689380.295017133,19,T,3.6,"$GPGGA,201808.000,4220.2647,N,07105.0464,W,1,05,3.6,6.6,M,-33.8,M,,0000*6E
",1711675087,999999761
1711657089.2464073,90,1711657089,239168405,,42.337711666666664,-71.084075,0.0,328313.8988909898,4689376.529666246,19,T,3.6,"$GPGGA,201809.000,4220.2627,N,07105.0445,W,1,05,3.6,6.5,M,-33.8,M,,0000*69
",1711675088,999999761
1711657090.2486112,91,1711657090,241335868,,42.337646666666664,-71.08402666666667,0.0,328317.7038632439,4689369.214323941,19,T,3.6,"$GPGGA,201810.000,4220.2588,N,07105.0416,W,1,05,3.6,5.3,M,-33.8,M,,0000*64
",1711675089,999999761
1711657091.2472672,92,1711657091,240211248,,42.33759,-71.08398833333334,0.0,328320.70768611575,4689362.844527174,19,T,3.6,"$GPGGA,201811.000,4220.2554,N,07105.0393,W,1,05,3.6,5.0,M,-33.8,M,,0000*6D
",1711675090,999999761
1711657092.2458227,93,1711657092,238295793,,42.337563333333335,-71.08397,0.0,328322.1454823206,4689359.84638245,19,T,3.6,"$GPGGA,201812.000,4220.2538,N,07105.0382,W,1,05,3.6,5.0,M,-33.8,M,,0000*64
",1711675091,999999523
1711657093.2650435,94,1711657093,257830381,,42.337535,-72.75061666666667,0.0,685305.3570349312,4689703.940036923,18,T,3.6,"$GPGGA,201813.000,4220.2521,N,07105.0370,W,1,05,3.6,6.2,M,-33.8,M,,0000*61
",1711675092,999999761
1711657094.2485287,95,1711657094,241698503,,42.337518333333335,-71.08394166666666,0.0,328324.3572255493,4689354.79227177,19,T,3.6,"$GPGGA,201814.000,4220.2511,N,07105.0365,W,1,05,3.6,6.6,M,-33.8,M,,0000*65
",1711675093,999999761
1711657095.2573774,96,1711657095,250221967,,42.33750833333333,-71.08393666666667,0.0,328324.7419308288,4689353.6717533665,19,T,3.6,"$GPGGA,201815.000,4220.2505,N,07105.0362,W,1,05,3.6,6.9,M,-33.8,M,,0000*69
",1711675094,999999761
1711657096.283331,97,1711657096,258668661,,42.33750333333333,-71.08393666666667,0.0,328324.7283242599,4689353.116541612,19,T,3.6,"$GPGGA,201816.000,4220.2502,N,07105.0362,W,1,05,3.6,7.0,M,-33.8,M,,0000*65
",1711675095,999999523
1711657097.248471,98,1711657097,241359949,,42.337493333333335,-71.083935,0.0,328324.8384173224,4689352.002753148,19,T,3.6,"$GPGGA,201817.000,4220.2496,N,07105.0361,W,1,05,3.6,7.1,M,-33.8,M,,0000*6A
",1711675096,999999761
1711657098.2598395,99,1711657098,252078294,,42.33747666666667,-71.08394,0.0,328324.3811434516,4689350.162142195,19,T,3.6,"$GPGGA,201818.000,4220.2486,N,07105.0364,W,1,05,3.6,7.3,M,-33.8,M,,0000*63
",1711675097,999999761
1711657099.2535503,100,1711657099,246477842,,42.337455,-71.083955,0.0,328323.086425096,4689347.786509413,19,T,3.6,"$GPGGA,201819.000,4220.2473,N,07105.0373,W,1,05,3.6,7.4,M,-33.8,M,,0000*69
",1711675098,999999761
1711657100.2657604,101,1711657100,258490562,,42.337426666666666,-72.75065,0.0,685302.9291206338,4689691.837677606,18,T,3.6,"$GPGGA,201820.000,4220.2456,N,07105.0390,W,1,05,3.6,7.5,M,-33.8,M,,0000*68
",1711675099,999999761
1711657101.2512157,102,1711657101,241580486,,42.33739666666666,-71.08402333333333,0.0,328317.298117991,4689341.447005856,19,T,3.5,"$GPGGA,201821.000,4220.2438,N,07105.0414,W,1,05,3.5,7.5,M,-33.8,M,,0000*69
",1711675100,999999761
1711657102.2651527,103,1711657102,258586406,,42.337363333333336,-71.08407333333334,0.0,328313.0882096018,4689337.846548413,19,T,3.5,"$GPGGA,201822.000,4220.2418,N,07105.0444,W,1,05,3.5,7.6,M,-33.8,M,,0000*6E
",1711675101,999999523
1711657103.2547588,104,1711657103,247543096,,112.33733333333333,-71.08413,0.0,0.0,0.0,0,,3.5,"$GPGGA,201823.000,4220.2400,N,07105.0478,W,1,05,3.5,7.7,M,-33.8,M,,0000*68
",1711675102,999999761
1711657104.2734187,105,1711657104,245924234,,42.33729833333334,-71.08418833333333,0.0,328303.43715631485,4689330.860999551,19,T,3.5,"$GPGGA,201824.000,4220.2379,N,07105.0513,W,1,05,3.5,7.6,M,-33.8,M,,0000*6B
",1711675103,999999046
1711657105.2851105,106,1711657105,262268066,,45.6706,-71.084245,0.0,337657.87691743765,5059562.6225284,19,T,3.5,"$GPGGA,201825.000,4220.2360,N,07105.0547,W,1,05,3.5,7.6,M,-33.8,M,,0000*63
",1711675104,999998807
1711657106.2499597,107,1711657106,242131948,,42.33723833333333,-71.08429666666666,0.0,328294.34891954775,4689324.417213047,19,T,3.5,"$GPGGA,201826.000,4220.2343,N,07105.0578,W,1,05,3.5,7.6,M,-33.8,M,,0000*6D
",1711675105,999999761
1711657107.2704804,108,1711657107,263471841,,42.33721833333333,-71.08434166666666,0.0,328290.58720062574,4689322.287236629,19,T,3.5,"$GPGGA,201827.000,4220.2331,N,07105.0605,W,1,05,3.5,7.5,M,-33.8,M,,0000*63
",1711675106,999999761
1711657108.250193,109,1711657108,242150306,,42.337208333333336,-71.08438666666666,0.0,328286.85269822297,4689321.267685656,19,T,3.5,"$GPGGA,201828.000,4220.2325,N,07105.0632,W,1,05,3.5,7.5,M,-33.8,M,,0000*6D
",1711675107,999999761
1711657109.2726998,110,1711657109,246384620,,42.33721166666667,-71.08442833333334,0.0,328283.429100863,4689321.721969786,19,T,3.5,"$GPGGA,201829.000,4220.2327,N,07105.0657,W,1,05,3.5,7.4,M,-33.8,M,,0000*6C
",1711675108,999999523
1711657110.2562432,111,1711657110,247231483,,42.337225,-71.08446333333333,0.0,328280.581950956,4689323.273215837,19,T,3.5,"$GPGGA,201830.000,4220.2335,N,07105.0678,W,1,05,3.5,7.6,M,-33.8,M,,0000*68
",1711675109,999999761
1711657111.2687812,112,1711657111,242354393,,45.67058333333333,-71.084495,0.0,337638.35636453785,5059561.2778398,19,T,3.5,"$GPGGA,201831.000,4220.2350,N,07105.0697,W,1,05,3.5,7.7,M,-33.8,M,,0000*6A
",1711675110,999999284
1711657112.2520869,113,1711657112,242418289,,42.33728,-71.08452666666666,0.0,328275.51400710095,4689329.508447792,19,T,3.5,"$GPGGA,201832.000,4220.2368,N,07105.0716,W,1,05,3.5,7.9,M,-33.8,M,,0000*64
",1711675111,999999761
1711657113.2505538,114,1711657113,241867780,,42.337311666666665,-71.08455833333333,0.0,328272.9913807878,4689333.08874173,19,T,3.5,"$GPGGA,201833.000,4220.2387,N,07105.0735,W,1,05,3.5,8.1,M,-33.8,M,,0000*62
",1711675112,999999523
1711657114.2621036,115,1711657114,241950035,,42.33734833333333,-71.08459166666667,0.0,328270.3450614277,4689337.2276144475,19,T,3.5,"$GPGGA,201834.000,4220.2409,N,07105.0755,W,1,05,3.5,8.6,M,-33.8,M,,0000*65
",1711675113,999999284
1711657115.2687125,116,1711657115,242592096,,42.33738666666667,-71.08463,0.0,328267.2913630413,4689341.5616571,19,T,3.5,"$GPGGA,201835.000,4220.2432,N,07105.0778,W,1,05,3.5,9.1,M,-33.8,M,,0000*65
",1711675114,999999284
1711657116.2669106,117,1711657116,258462667,,42.337426666666666,-71.08466833333334,0.0,328264.24220567656,4689346.080771812,19,T,3.5,"$GPGGA,201836.000,4220.2456,N,07105.0801,W,1,05,3.5,9.8,M,-33.8,M,,0000*6C
",1711675115,999999761
1711657117.2519445,118,1711657117,243737697,,45.6708,-71.08470833333334,0.0,337622.3667568256,5059585.781898324,19,T,3.5,"$GPGGA,201837.000,4220.2480,N,07105.0825,W,1,05,3.5,10.3,M,-33.8,M,,0000*53
",1711675116,999999523
1711657118.264307,119,1711657118,242193222,,42.33750666666667,-71.08474833333334,0.0,328257.86929085595,4689355.125738194,19,T,3.5,"$GPGGA,201838.000,4220.2504,N,07105.0849,W,1,05,3.5,10.8,M,-33.8,M,,0000*50
",1711675117,999999284
1711657119.249927,120,1711657119,242566108,,42.337543333333336,-71.08478666666667,0.0,328254.811071165,4689359.274716257,19,T,3.5,"$GPGGA,201839.000,4220.2526,N,07105.0872,W,1,05,3.5,11.5,M,-33.8,M,,0000*55
",1711675119,0
1711657120.2627063,121,1711657120,242857456,,45.67091666666666,-71.08483,0.0,337613.22777692805,5059598.990191878,19,T,3.5,"$GPGGA,201840.000,4220.2550,N,07105.0898,W,1,05,3.5,12.4,M,-33.8,M,,0000*5C
",1711675119,999999761
1711657121.249048,122,1711657121,241210222,,42.337621666666664,-71.08487166666667,0.0,328248.02172603516,4689368.14472091,19,T,3.5,"$GPGGA,201841.000,4220.2573,N,07105.0923,W,1,05,3.5,13.5,M,-33.8,M,,0000*5D
",1711675120,999999523
1711657122.2516494,123,1711657122,243654966,,42.33765666666667,-71.084915,0.0,328244.54706301854,4689372.11873271,19,T,3.5,"$GPGGA,201842.000,4220.2594,N,07105.0949,W,1,05,3.5,14.7,M,-33.8,M,,0000*5E
",1711675121,999999761
1711657123.265894,124,1711657123,242433547,,42.337691666666665,-71.084955,0.0,328241.34701556305,4689376.086013149,19,T,3.5,"$GPGGA,201843.000,4220.2615,N,07105.0973,W,1,05,3.5,15.6,M,-33.8,M,,0000*5C
",1711675122,999999523
1711657124.2495527,125,1711657124,242059946,,42.33772166666667,-71.08499333333333,0.0,328238.2706639882,4689379.494716697,19,T,3.5,"$GPGGA,201844.000,4220.2633,N,07105.0996,W,1,05,3.5,16.8,M,-33.8,M,,0000*59
",1711675123,999999761
1711657125.2499712,126,1711657125,241439580,,42.33775333333333,-72.7517,0.0,685215.466082592,4689725.824031811,18,T,3.5,"$GPGGA,201845.000,4220.2652,N,07105.1020,W,1,05,3.5,17.6,M,-33.8,M,,0000*55
",1711675124,999999761
1711657126.2490458,127,1711657126,241559028,,42.337775,-71.08506166666666,0.0,328232.7863458656,4689385.5550118,19,T,3.5,"$GPGGA,201846.000,4220.2665,N,07105.1037,W,1,05,3.5,18.7,M,-33.8,M,,0000*5A
",1711675125,999999761
1711657127.2512312,128,1711657127,242518186,,42.33779,-71.08508666666667,0.0,328230.7676044767,4689387.271149281,19,T,3.5,"$GPGGA,201847.000,4220.2674,N,07105.1052,W,1,05,3.5,19.4,M,-33.8,M,,0000*5A
",1711675126,999999761
1711657128.2697384,129,1711657128,242382764,,42.337801666666664,-71.08509833333333,0.0,328229.83823212364,4689388.590211345,19,T,3.5,"$GPGGA,201848.000,4220.2681,N,07105.1059,W,1,05,3.5,20.4,M,-33.8,M,,0000*5E
",1711675127,999996662
1711657129.250681,130,1711657129,242176771,,42.337805,-71.08509833333333,0.0,328229.8473082833,4689388.960352557,19,T,3.5,"$GPGGA,201849.000,4220.2683,N,07105.1059,W,1,05,3.5,21.5,M,-33.8,M,,0000*5D
",1711675128,999999523
1711657130.2496066,131,1711657130,241908073,,42.337806666666665,-71.08509166666667,0.0,328230.40106845176,4689389.131955816,19,T,3.5,"$GPGGA,201850.000,4220.2684,N,07105.1055,W,1,05,3.5,22.2,M,-33.8,M,,0000*5A
",1711675129,999999761
1711657131.2590475,132,1711657131,242214679,,42.337805,-72.75175,0.0,685211.1951710269,4689731.452359986,18,T,3.5,"$GPGGA,201851.000,4220.2683,N,07105.1050,W,1,05,3.5,22.9,M,-33.8,M,,0000*52
",1711675130,999999761
1711657132.2525587,133,1711657132,245146512,,42.33780333333333,-71.08507333333333,0.0,328231.9023531414,4689388.724779627,19,T,3.5,"$GPGGA,201852.000,4220.2682,N,07105.1044,W,1,05,3.5,23.5,M,-33.8,M,,0000*58
",1711675131,999999761
1711657133.251695,134,1711657133,243585586,,42.33780333333333,-71.08506833333334,0.0,328232.3142697278,4689388.714679235,19,T,3.5,"$GPGGA,201853.000,4220.2682,N,07105.1041,W,1,05,3.5,24.3,M,-33.8,M,,0000*5D
",1711675132,999999761
1711657134.2493095,135,1711657134,242555141,,42.337808333333335,-71.085075,0.0,328231.7786616989,4689389.283358246,19,T,3.5,"$GPGGA,201854.000,4220.2685,N,07105.1045,W,1,05,3.5,25.1,M,-33.8,M,,0000*5A
",1711675133,999999761
1711657135.2527664,136,1711657135,242944240,,42.337815,-71.08508833333333,0.0,328230.6983697895,4689390.050575188,19,T,3.5,"$GPGGA,201855.000,4220.2689,N,07105.1053,W,1,05,3.5,26.1,M,-33.8,M,,0000*53
",1711675134,999999761
1711657136.263967,137,1711657136,242611885,,42.33781833333333,-71.08509333333333,0.0,328230.2955294192,4689390.430816891,19,T,3.5,"$GPGGA,201856.000,4220.2691,N,07105.1056,W,1,05,3.5,27.2,M,-33.8,M,,0000*5E
",1711675135,999999284
1711657137.2640574,138,1711657137,242088079,,42.337826666666665,-71.085095,0.0,328230.18091429496,4689391.359536756,19,T,3.5,"$GPGGA,201857.000,4220.2696,N,07105.1057,W,1,05,3.5,27.4,M,-33.8,M,,0000*5F
",1711675136,999999523
1711657138.249199,139,1711657138,241894960,,42.337831666666666,-71.08509666666667,0.0,328230.057223051,4689391.918115413,19,T,3.5,"$GPGGA,201858.000,4220.2699,N,07105.1058,W,1,05,3.5,27.5,M,-33.8,M,,0000*51
",1711675137,999999761
1711657139.2500808,140,1711657139,242913484,,42.33783,-71.08509666666667,0.0,328230.0526849723,4689391.733044806,19,T,3.5,"$GPGGA,201859.000,4220.2698,N,07105.1058,W,1,05,3.5,27.4,M,-33.8,M,,0000*50
",1711675138,999999761
1711657140.250062,141,1711657140,242591857,,42.33783,-71.08509666666667,0.0,328230.0526849723,4689391.733044806,19,T,3.5,"$GPGGA,201900.000,4220.2698,N,07105.1058,W,1,05,3.5,27.4,M,-33.8,M,,0000*5D
",1711675139,999999761
1711657141.2675798,142,1711657141,242424488,,42.33783,-71.08509666666667,0.0,328230.0526849723,4689391.733044806,19,T,3.5,"$GPGGA,201901.000,4220.2698,N,07105.1058,W,1,05,3.5,27.4,M,-33.8,M,,0000*5C
",1711675140,999999523
1711657142.249926,143,1711657142,242317914,,42.33783,-71.08509666666667,0.0,328230.0526849723,4689391.733044806,19,T,3.5,"$GPGGA,201902.000,4220.2698,N,07105.1058,W,1,05,3.5,27.4,M,-33.8,M,,0000*5F
",1711675141,999999523
1711657143.259428,144,1711657143,242771148,,42.33783,-71.08509666666667,0.0,328230.0526849723,4689391.733044806,19,T,3.5,"$GPGGA,201903.000,4220.2698,N,07105.1058,W,1,05,3.5,27.4,M,-33.8,M,,0000*5E
",1711675142,999999761
1711657144.2658746,145,1711657144,258801937,,42.33783,-71.08509666666667,0.0,328230.0526849723,4689391.733044806,19,T,3.5,"$GPGGA,201904.000,4220.2698,N,07105.1058,W,1,05,3.5,27.4,M,-33.8,M,,0000*59
",1711675143,999999761
1711657145.2506878,146,1711657145,241899490,,42.33783,-71.08509666666667,0.0,328230.0526849723,4689391.733044806,19,T,3.5,"$GPGGA,201905.000,4220.2698,N,07105.1058,W,1,05,3.5,27.4,M,-33.8,M,,0000*58
",1711675144,999999523
1711657146.2639966,147,1711657146,242496490,,42.33783,-71.08509666666667,0.0,328230.0526849723,4689391.733044806,19,T,3.5,"$GPGGA,201906.000,4220.2698,N,07105.1058,W,1,05,3.5,27.4,M,-33.8,M,,0000*5B
",1711675145,999999284
1711657147.2710161,148,1711657147,259406328,,42.33783,-71.08509666666667,0.0,328230.0526849723,4689391.733044806,19,T,3.5,"$GPGGA,201907.000,4220.2698,N,07105.1058,W,1,05,3.5,27.5,M,-33.8,M,,0000*5B
",1711675146,999999761
1711657148.2497413,149,1711657148,242573738,,42.33783,-71.08509666666667,0.0,328230.0526849723,4689391.733044806,19,T,3.5,"$GPGGA,201908.000,4220.2698,N,07105.1058,W,1,05,3.5,27.5,M,-33.8,M,,0000*54
",1711675148,0
1711657149.2675078,150,1711657149,242009878,,42.33783,-71.08509666666667,0.0,328230.0526849723,4689391.733044806,19,T,3.5,"$GPGGA,201909.000,4220.2698,N,07105.1058,W,1,05,3.5,27.5,M,-33.8,M,,0000*55
",1711675148,999999523
1711657150.2501185,151,1711657150,242257356,,42.33783,-71.08509666666667,0.0,328230.0526849723,4689391.733044806,19,T,3.5,"$GPGGA,201910.000,4220.2698,N,07105.1058,W,1,05,3.5,27.5,M,-33.8,M,,0000*5D
",1711675149,999999523
1711657151.267994,152,1711657151,259048461,,42.33783,-71.08509666666667,0.0,328230.0526849723,4689391.733044806,19,T,3.5,"$GPGGA,201911.000,4220.2698,N,07105.1058,W,1,05,3.5,27.5,M,-33.8,M,,0000*5C
",1711675150,999999761
1711657152.2498171,153,1711657152,242535591,,42.33783,-71.08509666666667,0.0,328230.0526849723,4689391.733044806,19,T,3.5,"$GPGGA,201912.000,4220.2698,N,07105.1058,W,1,05,3.5,27.5,M,-33.8,M,,0000*5F
",1711675151,999999761
1711657153.2660427,154,1711657153,258752346,,42.33783,-71.08509666666667,0.0,328230.0526849723,4689391.733044806,19,T,3.5,"$GPGGA,201913.000,4220.2698,N,07105.1058,W,1,05,3.5,27.5,M,-33.8,M,,0000*5E
",1711675153,0
1711657154.2490315,155,1711657154,242151260,,42.33783,-71.08509666666667,0.0,328230.0526849723,4689391.733044806,19,T,3.5,"$GPGGA,201914.000,4220.2698,N,07105.1058,W,1,05,3.5,27.5,M,-33.8,M,,0000*59
",1711675153,999999761
1711657155.2599826,156,1711657155,242640733,,42.33783,-71.08509666666667,0.0,328230.0526849723,4689391.733044806,19,T,3.5,"$GPGGA,201915.000,4220.2698,N,07105.1058,W,1,05,3.5,27.5,M,-33.8,M,,0000*58
",1711675154,999999761
1711657156.2669775,157,1711657156,259158611,,42.33783,-71.08509666666667,0.0,328230.0526849723,4689391.733044806,19,T,3.5,"$GPGGA,201916.000,4220.2698,N,07105.1058,W,1,05,3.5,27.5,M,-33.8,M,,0000*5B
",1711675155,999999761
1711657157.2508981,158,1711657157,241597414,,42.33783,-72.75176666666667,0.0,685209.748698799,4689734.192141499,18,T,3.5,"$GPGGA,201917.000,4220.2698,N,07105.1060,W,1,05,3.5,27.8,M,-33.8,M,,0000*5C
",1711675156,999999761
1711657158.266375,159,1711657158,258683919,,42.33783666666667,-71.08510333333334,0.0,328229.52161546063,4689392.486794613,19,T,3.5,"$GPGGA,201918.000,4220.2702,N,07105.1062,W,1,05,3.5,28.1,M,-33.8,M,,0000*55
",1711675157,999999761
1711657159.2641594,160,1711657159,243089914,,42.337845,-71.08510833333334,0.0,328229.132389616,4689393.42224821,19,T,3.5,"$GPGGA,201919.000,4220.2707,N,07105.1065,W,1,05,3.5,28.5,M,-33.8,M,,0000*52
",1711675158,999999046
1711657160.2506454,161,1711657160,242470026,,42.337855,-71.08511333333334,0.0,328228.7477020007,4689394.54277244,19,T,3.5,"$GPGGA,201920.000,4220.2713,N,07105.1068,W,1,05,3.5,28.8,M,-33.8,M,,0000*5D
",1711675159,999999761
1711657161.2680945,162,1711657161,242591857,,42.337851666666666,-71.08511166666666,0.0,328228.8759311921,4689394.16926436,19,T,3.5,"$GPGGA,201921.000,4220.2711,N,07105.1067,W,1,05,3.5,28.8,M,-33.8,M,,0000*51
",1711675160,999999284
1711657162.2587814,163,1711657162,242059469,,42.337851666666666,-71.08511166666666,0.0,328228.8759311921,4689394.16926436,19,T,3.5,"$GPGGA,201922.000,4220.2711,N,07105.1067,W,1,05,3.5,28.8,M,-33.8,M,,0000*52
",1711675161,999999523
1711657163.2632203,164,1711657163,241964578,,42.337851666666666,-71.08511,0.0,328229.0132366152,4689394.165897498,19,T,3.5,"$GPGGA,201923.000,4220.2711,N,07105.1066,W,1,05,3.5,28.8,M,-33.8,M,,0000*52
",1711675162,999999284
1711657164.2501984,165,1711657164,241807222,,42.33785833333334,-71.08511166666666,0.0,328228.8940836459,4689394.909546789,19,T,3.5,"$GPGGA,201924.000,4220.2715,N,07105.1067,W,1,05,3.5,28.7,M,-33.8,M,,0000*5F
",1711675163,999999761
1711657165.251154,166,1711657165,241361379,,45.671216666666666,-71.08510666666666,0.0,337592.54654954677,5059632.881027569,19,T,4.0,"$GPGGA,201925.000,4220.2730,N,07105.1064,W,1,04,4.0,26.6,M,-33.8,M,,0000*56
",1711675164,999999761
1711657166.2525973,167,1711657166,243350505,,42.33791,-71.08510666666666,0.0,328229.44668113196,4689400.636635058,19,T,3.5,"$GPGGA,201926.000,4220.2746,N,07105.1064,W,1,05,3.5,24.7,M,-33.8,M,,0000*54
",1711675165,999999523
1711657167.268202,168,1711657167,260192155,,42.33793166666667,-71.08510833333334,0.0,328229.3683712892,4689403.045919834,19,T,3.5,"$GPGGA,201927.000,4220.2759,N,07105.1065,W,1,05,3.5,23.0,M,-33.8,M,,0000*5A
",1711675166,999999761
1711657168.25091,169,1711657168,243514060,,42.33794666666667,-72.75178333333334,0.0,685208.0330846542,4689747.1109099,18,T,3.5,"$GPGGA,201928.000,4220.2768,N,07105.1070,W,1,05,3.5,22.4,M,-33.8,M,,0000*56
",1711675168,0
1711657169.250565,170,1711657169,242778539,,42.33795666666666,-71.08512333333333,0.0,328228.2006962431,4689405.8522808235,19,T,3.5,"$GPGGA,201929.000,4220.2774,N,07105.1074,W,1,05,3.5,21.9,M,-33.8,M,,0000*50
",1711675168,999999761
1711657170.2655084,171,1711657170,246349334,,42.33795666666666,-71.08512166666667,0.0,328228.3380014376,4689405.8489139415,19,T,3.5,"$GPGGA,201930.000,4220.2774,N,07105.1073,W,1,05,3.5,21.9,M,-33.8,M,,0000*5F
",1711675169,999999046
1711657171.265503,172,1711657171,247856616,,42.33795666666666,-71.08512166666667,0.0,328228.3380014376,4689405.8489139415,19,T,3.5,"$GPGGA,201931.000,4220.2774,N,07105.1073,W,1,05,3.5,21.9,M,-33.8,M,,0000*5E
",1711675170,999999761
1711657172.2559497,173,1711657172,247780799,,42.33795666666666,-71.08512166666667,0.0,328228.3380014376,4689405.8489139415,19,T,3.5,"$GPGGA,201932.000,4220.2774,N,07105.1073,W,1,05,3.5,21.9,M,-33.8,M,,0000*5D
",1711675171,999999761
1711657173.259983,174,1711657173,243084430,,42.33795666666666,-71.08512166666667,0.0,328228.3380014376,4689405.8489139415,19,T,3.5,"$GPGGA,201933.000,4220.2774,N,07105.1073,W,1,05,3.5,21.9,M,-33.8,M,,0000*5C
",1711675172,999999761
1711657174.264416,175,1711657174,246994733,,42.33795666666666,-71.08512166666667,0.0,328228.3380014376,4689405.8489139415,19,T,3.5,"$GPGGA,201934.000,4220.2774,N,07105.1073,W,1,05,3.5,21.9,M,-33.8,M,,0000*5B
",1711675173,999999761
1711657175.255,176,1711657175,247606515,,42.337968333333336,-71.08512333333333,0.0,328228.2324632811,4689407.1477751,19,T,3.5,"$GPGGA,201935.000,4220.2781,N,07105.1074,W,1,05,3.5,20.6,M,-33.8,M,,0000*59
",1711675174,999999761
1711657176.2612987,177,1711657176,248351812,,42.337985,-71.08513833333333,0.0,328227.04209857265,4689409.028783274,19,T,3.5,"$GPGGA,201936.000,4220.2791,N,07105.1083,W,1,05,3.5,19.7,M,-33.8,M,,0000*58
",1711675175,999999761
1711657177.2543902,178,1711657177,247950315,,112.338,-189.4185,0.0,0.0,0.0,0,,3.5,"$GPGGA,201937.000,4220.2800,N,07105.1100,W,1,05,3.5,18.9,M,-33.8,M,,0000*5B
",1711675176,999999761
1711657178.2546685,179,1711657178,247429847,,42.33801,-71.08521333333333,0.0,328220.9314427534,4689411.95635607,19,T,3.5,"$GPGGA,201938.000,4220.2806,N,07105.1128,W,1,05,3.5,18.4,M,-33.8,M,,0000*55
",1711675178,0
1711657179.250483,180,1711657179,243240594,,42.33802166666667,-71.08527166666667,0.0,328216.1575342809,4689413.369698065,19,T,3.5,"$GPGGA,201939.000,4220.2813,N,07105.1163,W,1,05,3.5,18.1,M,-33.8,M,,0000*5A
",1711675178,999999523
1711657180.2518756,181,1711657180,243424415,,42.33801833333333,-71.08533166666666,0.0,328211.2054750815,4689413.12077506,19,T,3.5,"$GPGGA,201940.000,4220.2811,N,07105.1199,W,1,05,3.5,18.0,M,-33.8,M,,0000*52
",1711675179,999999523
1711657181.254631,182,1711657181,247453689,,42.33801,-71.08539333333333,0.0,328206.10249404766,4689412.320011022,19,T,3.5,"$GPGGA,201941.000,4220.2806,N,07105.1236,W,1,05,3.5,17.9,M,-33.8,M,,0000*55
",1711675180,999999523
1711657182.2607453,183,1711657182,248080968,,42.337995,-71.085455,0.0,328200.98135615926,4689410.778968202,19,T,3.5,"$GPGGA,201942.000,4220.2797,N,07105.1273,W,1,05,3.5,17.8,M,-33.8,M,,0000*51
",1711675181,999999761
1711657183.2670019,184,1711657183,248589992,,42.33797666666667,-71.085515,0.0,328195.98844298447,4689408.864420316,19,T,3.5,"$GPGGA,201943.000,4220.2786,N,07105.1309,W,1,05,3.5,17.7,M,-33.8,M,,0000*53
",1711675182,999999761
1711657184.272103,185,1711657184,248118162,,42.33796,-71.08557333333333,0.0,328191.137371263,4689407.131578914,19,T,3.5,"$GPGGA,201944.000,4220.2776,N,07105.1344,W,1,05,3.5,17.7,M,-33.8,M,,0000*52
",1711675183,999998807
1711657185.2662978,186,1711657185,242996931,,42.337945,-71.08562833333333,0.0,328186.56544669776,4689405.577076013,19,T,3.5,"$GPGGA,201945.000,4220.2767,N,07105.1377,W,1,05,3.5,17.7,M,-33.8,M,,0000*53
",1711675184,999999523
1711657186.2767272,187,1711657186,247565269,,42.33793166666667,-71.08567166666667,0.0,328182.95919611887,4689404.184072199,19,T,3.5,"$GPGGA,201946.000,4220.2759,N,07105.1403,W,1,05,3.5,17.6,M,-33.8,M,,0000*58
",1711675185,999998807
1711657187.27373,188,1711657187,248120307,,42.33792166666667,-71.08570833333333,0.0,328179.9112440051,4689403.147740095,19,T,3.5,"$GPGGA,201947.000,4220.2753,N,07105.1425,W,1,05,3.5,17.6,M,-33.8,M,,0000*57
",1711675186,999999523
1711657188.2719243,189,1711657188,248298168,,42.337925,-71.08574333333334,0.0,328177.0369121884,4689403.588606333,19,T,3.5,"$GPGGA,201948.000,4220.2755,N,07105.1446,W,1,05,3.5,17.8,M,-33.8,M,,0000*55
",1711675187,999999523
1711657189.2549098,190,1711657189,247880458,,42.337936666666664,-71.08577,0.0,328174.8718047577,4689404.937987167,19,T,3.5,"$GPGGA,201949.000,4220.2762,N,07105.1462,W,1,05,3.5,18.1,M,-33.8,M,,0000*50
",1711675188,999999761
1711657190.2708697,191,1711657190,247736692,,42.337938333333334,-71.08578166666666,0.0,328173.9152076279,4689405.146633352,19,T,3.4,"$GPGGA,201950.000,4220.2763,N,07105.1469,W,1,05,3.4,18.2,M,-33.8,M,,0000*50
",1711675189,999999284
1711657191.2586777,192,1711657191,243512153,,42.337945,-71.08579666666667,0.0,328172.69761891424,4689405.917227461,19,T,3.4,"$GPGGA,201951.000,4220.2767,N,07105.1478,W,1,05,3.4,18.5,M,-33.8,M,,0000*52
",1711675190,999999761
1711657192.2553933,193,1711657192,247889757,,45.671283333333335,-71.08580833333333,0.0,337538.08773998194,5059641.711219078,19,T,3.4,"$GPGGA,201952.000,4220.2770,N,07105.1485,W,1,05,3.4,18.9,M,-33.8,M,,0000*59
",1711675191,999999761
1711657193.2569978,194,1711657193,247425317,,45.671283333333335,-71.08581,0.0,337537.95792594843,5059641.714601132,19,T,3.4,"$GPGGA,201953.000,4220.2770,N,07105.1486,W,1,05,3.4,19.2,M,-33.8,M,,0000*51
",1711675192,999999761
1711657194.2563381,195,1711657194,247623682,,42.337945,-71.08580333333333,0.0,328172.1483980104,4689405.930699371,19,T,3.4,"$GPGGA,201954.000,4220.2767,N,07105.1482,W,1,05,3.4,19.5,M,-33.8,M,,0000*53
",1711675193,999999761
1711657195.2730327,196,1711657195,264880418,,42.33794833333334,-71.08579666666667,0.0,328172.706698142,4689406.287368696,19,T,3.4,"$GPGGA,201955.000,4220.2769,N,07105.1478,W,1,05,3.4,20.2,M,-33.8,M,,0000*54
",1711675194,999999761
1711657196.2519858,197,1711657196,243861198,,42.337965,-72.75246666666666,0.0,685151.6835642161,4689747.658415326,18,T,3.4,"$GPGGA,201956.000,4220.2779,N,07105.1480,W,1,05,3.4,21.5,M,-33.8,M,,0000*57
",1711675195,999999761
1711657197.2736714,198,1711657197,249389171,,42.33799166666667,-71.08580333333333,0.0,328172.27550765796,4689411.112676677,19,T,3.4,"$GPGGA,201957.000,4220.2795,N,07105.1482,W,1,05,3.4,22.6,M,-33.8,M,,0000*56
",1711675196,999999284
1711657198.2700608,199,1711657198,259889364,,42.33799666666667,-71.08578,0.0,328174.2113981455,4689411.62073703,19,T,3.4,"$GPGGA,201958.000,4220.2798,N,07105.1468,W,1,05,3.4,23.4,M,-33.8,M,,0000*53
",1711675198,0
1711657199.2509344,200,1711657199,243969202,,42.337995,-71.08575333333333,0.0,328176.4037404381,4689411.381779622,19,T,3.4,"$GPGGA,201959.000,4220.2797,N,07105.1452,W,1,05,3.4,23.4,M,-33.8,M,,0000*54
",1711675198,999999761
1711657200.268333,201,1711657200,243789911,,42.337965,-71.08571,0.0,328179.89196377073,4689407.962943951,19,T,3.4,"$GPGGA,202000.000,4220.2779,N,07105.1426,W,1,05,3.4,23.0,M,-33.8,M,,0000*55
",1711675199,999999046
1711657201.2700796,202,1711657201,243156909,,42.33789,-72.75231666666667,0.0,685164.2613105816,4689739.656813229,18,T,3.4,"$GPGGA,202001.000,4220.2734,N,07105.1390,W,1,05,3.4,23.1,M,-33.8,M,,0000*56
",1711675200,999999284
1711657202.270313,203,1711657202,243953227,,42.337795,-71.08559166666667,0.0,328189.1776371966,4689388.846632095,19,T,3.4,"$GPGGA,202002.000,4220.2677,N,07105.1355,W,1,05,3.4,23.9,M,-33.8,M,,0000*52
",1711675201,999999523
1711657203.2492917,204,1711657203,242025375,,42.337691666666665,-71.085525,0.0,328194.38844098244,4689377.237550945,19,T,3.4,"$GPGGA,202003.000,4220.2615,N,07105.1315,W,1,05,3.4,24.5,M,-33.8,M,,0000*58
",1711675202,999999761
1711657204.2660027,205,1711657204,257764577,,42.33761833333333,-71.08545666666667,0.0,328199.818268494,4689368.9563778285,19,T,3.4,"$GPGGA,202004.000,4220.2571,N,07105.1274,W,1,05,3.4,23.5,M,-33.8,M,,0000*5F
",1711675203,999999523
1711657205.2735116,206,1711657205,245211839,,42.337556666666664,-71.08540666666667,0.0,328203.7695134325,4689362.007744161,19,T,3.4,"$GPGGA,202005.000,4220.2534,N,07105.1244,W,1,05,3.4,22.8,M,-33.8,M,,0000*50
",1711675204,999999284
1711657206.267295,207,1711657206,250330686,,42.33747666666667,-71.08534333333333,0.0,328208.7692918012,4689352.996398467,19,T,3.4,"$GPGGA,202006.000,4220.2486,N,07105.1206,W,1,05,3.4,21.9,M,-33.8,M,,0000*5F
",1711675205,999999761
1711657207.2486167,208,1711657207,241990566,,42.33741,-71.08529833333333,0.0,328212.29502099194,4689345.502660217,19,T,3.4,"$GPGGA,202007.000,4220.2446,N,07105.1179,W,1,05,3.4,20.9,M,-33.8,M,,0000*58
",1711675206,999999761
1711657208.2499046,209,1711657208,241703510,,42.33734166666667,-72.75191666666667,0.0,685198.8247853802,4689679.639167423,18,T,3.4,"$GPGGA,202008.000,4220.2405,N,07105.1150,W,1,05,3.4,20.5,M,-33.8,M,,0000*57
",1711675207,999999523
1711657209.2762644,210,1711657209,250601768,,42.33725666666667,-71.085195,0.0,328220.3904980713,4689328.267406824,19,T,3.4,"$GPGGA,202009.000,4220.2354,N,07105.1117,W,1,05,3.4,19.9,M,-33.8,M,,0000*50
",1711675208,999999284
1711657210.2626436,211,1711657210,240762710,,42.337185,-71.08515333333334,0.0,328223.6280256985,4689320.2251975015,19,T,3.4,"$GPGGA,202010.000,4220.2311,N,07105.1092,W,1,05,3.4,19.3,M,-33.8,M,,0000*5F
",1711675209,999999284
1711657211.2642097,212,1711657211,257225990,,42.33713,-71.08511,0.0,328227.0482488831,4689314.030328998,19,T,3.4,"$GPGGA,202011.000,4220.2278,N,07105.1066,W,1,05,3.4,18.9,M,-33.8,M,,0000*50
",1711675210,999999761
1711657212.2654407,213,1711657212,258347749,,42.33710333333333,-71.08508,0.0,328229.4471671359,4689311.008596698,19,T,3.4,"$GPGGA,202012.000,4220.2262,N,07105.1048,W,1,05,3.4,18.2,M,-33.8,M,,0000*5F
",1711675211,999999761
1711657213.2804537,214,1711657213,258608818,,42.337048333333335,-71.08505333333333,0.0,328231.4943287013,4689304.847398876,19,T,3.4,"$GPGGA,202013.000,4220.2229,N,07105.1032,W,1,05,3.4,17.2,M,-33.8,M,,0000*53
",1711675212,999999284
1711657214.2599523,215,1711657214,252877235,,42.337001666666666,-71.085055,0.0,328231.2299598472,4689299.668789307,19,T,3.4,"$GPGGA,202014.000,4220.2201,N,07105.1033,W,1,05,3.4,16.2,M,-33.8,M,,0000*5E
",1711675213,999999761
1711657215.2529457,216,1711657215,244857549,,42.336958333333335,-71.08507,0.0,328229.8762077696,4689294.887255146,19,T,3.4,"$GPGGA,202015.000,4220.2175,N,07105.1042,W,1,05,3.4,15.2,M,-33.8,M,,0000*5A
",1711675214,999999761
1711657216.2537067,217,1711657216,244669198,,42.336915,-72.75176666666667,0.0,685212.4352275559,4689632.587355713,18,T,3.4,"$GPGGA,202016.000,4220.2149,N,07105.1060,W,1,05,3.4,14.2,M,-33.8,M,,0000*57
",1711675215,999999761
1711657217.2532694,218,1711657217,244764328,,42.336891666666666,-71.08515166666666,0.0,328222.96662186703,4689287.649407664,19,T,3.4,"$GPGGA,202017.000,4220.2135,N,07105.1091,W,1,05,3.4,13.7,M,-33.8,M,,0000*51
",1711675216,999999761
1711657218.2901597,219,1711657218,264883995,,42.33687333333334,-72.75188333333334,0.0,685202.9459375154,4689627.706412645,18,T,3.4,"$GPGGA,202018.000,4220.2124,N,07105.1130,W,1,05,3.4,13.5,M,-33.8,M,,0000*56
",1711675217,999999523
1711657219.2574825,220,1711657219,250300168,,42.33687,-71.085295,0.0,328211.0991758987,4689285.533055006,19,T,3.4,"$GPGGA,202019.000,4220.2122,N,07105.1177,W,1,05,3.4,13.6,M,-33.8,M,,0000*51
",1711675218,999999761
1711657220.2519512,221,1711657220,244878053,,45.6702,-71.08537166666666,0.0,337568.9640344671,5059520.468183243,19,T,3.4,"$GPGGA,202020.000,4220.2120,N,07105.1223,W,1,05,3.4,13.8,M,-33.8,M,,0000*55
",1711675219,999999761
1711657221.2574973,222,1711657221,248742580,,42.33685833333333,-71.08544,0.0,328199.12164657115,4689284.530513116,19,T,3.4,"$GPGGA,202021.000,4220.2115,N,07105.1264,W,1,05,3.4,14.0,M,-33.8,M,,0000*5E
",1711675220,999999761
1711657222.2569785,223,1711657222,249298095,,42.33686,-71.08550333333334,0.0,328193.90849698987,4689284.843546222,19,T,3.4,"$GPGGA,202022.000,4220.2116,N,07105.1302,W,1,05,3.4,14.3,M,-33.8,M,,0000*5C
",1711675221,999999761
1711657223.2568219,224,1711657223,248587846,,42.33687333333334,-71.08556333333334,0.0,328189.00173591304,4689286.445342141,19,T,3.4,"$GPGGA,202023.000,4220.2124,N,07105.1338,W,1,05,3.4,14.8,M,-33.8,M,,0000*5E
",1711675222,999999523
1711657224.2566879,225,1711657224,248548746,,42.336886666666665,-71.08561333333333,0.0,328184.9188221014,4689288.026935529,19,T,3.4,"$GPGGA,202024.000,4220.2132,N,07105.1368,W,1,05,3.4,15.3,M,-33.8,M,,0000*51
",1711675223,999999761
1711657225.2556896,226,1711657225,248674392,,42.336895,-72.75231666666667,0.0,685167.1820126994,4689629.168552493,18,T,3.4,"$GPGGA,202025.000,4220.2137,N,07105.1390,W,1,05,3.4,15.7,M,-33.8,M,,0000*56
",1711675224,999999523
1711657226.2518585,227,1711657226,244409322,,42.33690333333333,-71.085675,0.0,328179.8838360305,4689290.002246811,19,T,3.4,"$GPGGA,202026.000,4220.2142,N,07105.1405,W,1,05,3.4,16.3,M,-33.8,M,,0000*5B
",1711675225,999999761
1711657227.2616441,228,1711657227,245053768,,42.33689666666667,-71.08568666666666,0.0,328178.9045264373,4689289.285538877,19,T,3.4,"$GPGGA,202027.000,4220.2138,N,07105.1412,W,1,05,3.4,16.6,M,-33.8,M,,0000*54
",1711675226,999999761
1711657228.273683,229,1711657228,246582984,,45.67021666666667,-71.08569333333334,0.0,337543.9576792666,5059522.972479994,19,T,3.4,"$GPGGA,202028.000,4220.2130,N,07105.1416,W,1,05,3.4,17.1,M,-33.8,M,,0000*51
",1711675227,999999046
1711657229.2542317,230,1711657229,245321989,,42.33687666666667,-71.08570833333333,0.0,328177.0650568739,4689287.10847324,19,T,3.4,"$GPGGA,202029.000,4220.2126,N,07105.1425,W,1,05,3.4,17.8,M,-33.8,M,,0000*5E
",1711675229,0
1711657230.2600963,231,1711657230,245575666,,42.33688166666666,-71.08574166666666,0.0,328174.3325240119,4689287.731041891,19,T,3.4,"$GPGGA,202030.000,4220.2129,N,07105.1445,W,1,05,3.4,18.2,M,-33.8,M,,0000*5A
",1711675229,999999761
1711657231.2725558,232,1711657231,245540380,,42.336865,-71.08577,0.0,328171.95290117175,4689285.9375902265,19,T,3.4,"$GPGGA,202031.000,4220.2119,N,07105.1462,W,1,05,3.4,18.5,M,-33.8,M,,0000*5A
",1711675230,999999046
1711657232.253067,233,1711657232,245536327,,42.33685666666667,-71.085805,0.0,328169.04674432526,4689285.082964144,19,T,3.4,"$GPGGA,202032.000,4220.2114,N,07105.1483,W,1,05,3.4,18.8,M,-33.8,M,,0000*56
",1711675231,999999761
1711657233.256289,234,1711657233,249291658,,42.336906666666664,-71.08586166666667,0.0,328164.5144758683,4689290.749594448,19,T,3.4,"$GPGGA,202033.000,4220.2144,N,07105.1517,W,1,05,3.4,18.9,M,-33.8,M,,0000*5F
",1711675232,999999761
1711657234.252431,235,1711657234,245213270,,42.33694666666667,-71.08592166666666,0.0,328159.68036138127,4689295.312540723,19,T,3.4,"$GPGGA,202034.000,4220.2168,N,07105.1553,W,1,05,3.4,18.9,M,-33.8,M,,0000*56
",1711675233,999999761
1711657235.2514393,236,1711657235,244551658,,42.33700833333333,-71.08598166666667,0.0,328154.9052723688,4689302.281408254,19,T,3.4,"$GPGGA,202035.000,4220.2205,N,07105.1589,W,1,05,3.4,19.0,M,-33.8,M,,0000*50
",1711675234,999999761
1711657236.254197,237,1711657236,245295286,,42.337093333333335,-72.7527,0.0,685135.0188875415,4689650.357423826,18,T,3.4,"$GPGGA,202036.000,4220.2256,N,07105.1620,W,1,05,3.4,19.8,M,-33.8,M,,0000*5D
",1711675235,999999761
1711657237.2510154,238,1711657237,243637800,,42.33714,-71.086075,0.0,328147.57473667286,4689317.090612164,19,T,3.4,"$GPGGA,202037.000,4220.2284,N,07105.1645,W,1,05,3.4,20.8,M,-33.8,M,,0000*5A
",1711675236,999999761
1711657238.2518387,239,1711657238,244181156,,42.337156666666665,-71.08610333333333,0.0,328145.28592009045,4689318.99858156,19,T,3.4,"$GPGGA,202038.000,4220.2294,N,07105.1662,W,1,05,3.4,21.9,M,-33.8,M,,0000*51
",1711675237,999999761
1711657239.2649305,240,1711657239,244632720,,42.337226666666666,-71.08614833333333,0.0,328141.7693257163,4689326.862496142,19,T,3.4,"$GPGGA,202039.000,4220.2336,N,07105.1689,W,1,05,3.4,22.5,M,-33.8,M,,0000*53
",1711675238,999999284
1711657240.2695782,241,1711657240,244432926,,42.337315,-71.08621166666667,0.0,328136.7923118408,4689336.799244286,19,T,3.4,"$GPGGA,202040.000,4220.2389,N,07105.1727,W,1,05,3.4,24.0,M,-33.8,M,,0000*5F
",1711675239,999999284
1711657241.2501638,242,1711657241,243405103,,42.33745666666667,-71.08629666666667,0.0,328130.17563069955,4689352.702049835,19,T,3.4,"$GPGGA,202041.000,4220.2474,N,07105.1778,W,1,05,3.4,25.2,M,-33.8,M,,0000*52
",1711675240,999999523
1711657242.2521539,243,1711657242,243718624,,42.337625,-71.08639333333333,0.0,328122.67049430695,4689371.589575185,19,T,3.4,"$GPGGA,202042.000,4220.2575,N,07105.1836,W,1,05,3.4,27.4,M,-33.8,M,,0000*50
",1711675241,999999761
1711657243.25106,244,1711657243,243667602,,42.33771333333333,-71.08643666666667,0.0,328119.3412123088,4689381.48591104,19,T,3.4,"$GPGGA,202043.000,4220.2628,N,07105.1862,W,1,05,3.4,28.2,M,-33.8,M,,0000*52
",1711675242,999999761
1711657244.25162,245,1711657244,243468999,,42.337756666666664,-72.75311666666667,0.0,685098.7453309428,4689723.109085018,18,T,3.4,"$GPGGA,202044.000,4220.2654,N,07105.1870,W,1,05,3.4,28.0,M,-33.8,M,,0000*5F
",1711675243,999999761
1711657245.2678685,246,1711657245,243477821,,42.33772666666667,-72.7531,0.0,685100.2064322865,4689719.814064549,18,T,3.4,"$GPGGA,202045.000,4220.2636,N,07105.1860,W,1,05,3.4,26.7,M,-33.8,M,,0000*52
",1711675244,999999284
1711657246.2668226,247,1711657246,260229587,,42.33772666666667,-72.7531,0.0,685100.2064322865,4689719.814064549,18,T,3.4,"$GPGGA,202046.000,4220.2636,N,07105.1860,W,1,05,3.4,26.7,M,-33.8,M,,0000*51
",1711675245,999999761
1711657247.255077,248,1711657247,245526075,,42.33772666666667,-72.7531,0.0,685100.2064322865,4689719.814064549,18,T,3.4,"$GPGGA,202047.000,4220.2636,N,07105.1860,W,1,05,3.4,26.6,M,-33.8,M,,0000*51
",1711675246,999999761
1711657248.282276,249,1711657248,264183044,,42.33772666666667,-72.7531,0.0,685100.2064322865,4689719.814064549,18,T,3.4,"$GPGGA,202048.000,4220.2636,N,07105.1860,W,1,05,3.4,26.6,M,-33.8,M,,0000*5E
",1711675247,999999284
1711657249.2562673,250,1711657249,248564720,,42.33772666666667,-72.7531,0.0,685100.2064322865,4689719.814064549,18,T,3.4,"$GPGGA,202049.000,4220.2636,N,07105.1860,W,1,05,3.4,26.6,M,-33.8,M,,0000*5F
",1711675248,999999761
1711657250.2660964,251,1711657250,249231338,,42.33772666666667,-72.7531,0.0,685100.2064322865,4689719.814064549,18,T,3.4,"$GPGGA,202050.000,4220.2636,N,07105.1860,W,1,05,3.4,26.6,M,-33.8,M,,0000*57
",1711675249,999999761
1711657251.256845,252,1711657251,248632669,,42.33772666666667,-72.7531,0.0,685100.2064322865,4689719.814064549,18,T,3.4,"$GPGGA,202051.000,4220.2636,N,07105.1860,W,1,05,3.4,26.6,M,-33.8,M,,0000*56
",1711675250,999999761
1711657252.2512019,253,1711657252,244184494,,42.337725,-72.7531,0.0,685100.2113229092,4689719.628992086,18,T,3.4,"$GPGGA,202052.000,4220.2635,N,07105.1860,W,1,05,3.4,26.6,M,-33.8,M,,0000*56
",1711675251,999999761
1711657253.255465,254,1711657253,248231649,,42.33770833333333,-71.08641,0.0,328121.52448129986,4689380.876795468,19,T,3.4,"$GPGGA,202053.000,4220.2625,N,07105.1846,W,1,05,3.4,25.5,M,-33.8,M,,0000*52
",1711675252,999999761
1711657254.2739406,255,1711657254,265318632,,42.33770166666667,-71.08639666666667,0.0,328122.6047636749,4689380.109561397,19,T,3.4,"$GPGGA,202054.000,4220.2621,N,07105.1838,W,1,05,3.4,24.8,M,-33.8,M,,0000*54
",1711675253,999999761
1711657255.257788,256,1711657255,249871253,,45.671033333333334,-71.08638833333333,0.0,337492.1886405084,5059615.113636302,19,T,3.4,"$GPGGA,202055.000,4220.2620,N,07105.1833,W,1,05,3.4,24.4,M,-33.8,M,,0000*53
",1711675254,999999761
1711657256.2579975,257,1711657256,249152421,,42.33770166666667,-71.08638833333333,0.0,328123.29129248136,4689380.092716735,19,T,3.4,"$GPGGA,202056.000,4220.2621,N,07105.1833,W,1,05,3.4,24.4,M,-33.8,M,,0000*51
",1711675255,999999761
1711657257.2570882,258,1711657257,248465299,,42.33770166666667,-71.08638833333333,0.0,328123.29129248136,4689380.092716735,19,T,3.4,"$GPGGA,202057.000,4220.2621,N,07105.1833,W,1,05,3.4,24.4,M,-33.8,M,,0000*50
",1711675256,999999761
1711657258.2746966,259,1711657258,248739004,,42.33770166666667,-71.08638833333333,0.0,328123.29129248136,4689380.092716735,19,T,3.4,"$GPGGA,202058.000,4220.2621,N,07105.1833,W,1,05,3.4,24.4,M,-33.8,M,,0000*5F
",1711675257,999999284
1711657259.267667,260,1711657259,248894214,,42.33770166666667,-71.08638833333333,0.0,328123.29129248136,4689380.092716735,19,T,3.4,"$GPGGA,202059.000,4220.2621,N,07105.1833,W,1,05,3.4,24.4,M,-33.8,M,,0000*5E
",1711675258,999999046
1711657260.2563748,261,1711657260,247754335,,42.337705,-71.08638666666667,0.0,328123.4376799976,4689380.459489045,19,T,3.4,"$GPGGA,202100.000,4220.2623,N,07105.1832,W,1,05,3.4,24.2,M,-33.8,M,,0000*56
",1711675259,999999761
1711657261.2558987,262,1711657261,248651266,,42.337705,-71.08638833333333,0.0,328123.30037424446,4689380.462857969,19,T,3.4,"$GPGGA,202101.000,4220.2623,N,07105.1833,W,1,05,3.4,24.0,M,-33.8,M,,0000*54
",1711675261,0
1711657262.2722492,263,1711657262,264207601,,42.337693333333334,-71.08639,0.0,328123.1312822976,4689379.170732577,19,T,3.4,"$GPGGA,202102.000,4220.2616,N,07105.1834,W,1,05,3.4,23.7,M,-33.8,M,,0000*56
",1711675261,999999761
1711657263.2670984,264,1711657263,259799718,,42.337685,-71.08640333333334,0.0,328122.01013149513,4689378.272331005,19,T,3.4,"$GPGGA,202103.000,4220.2611,N,07105.1842,W,1,05,3.4,23.4,M,-33.8,M,,0000*52
",1711675262,999999761
1711657264.273629,265,1711657264,264675617,,42.337675,-71.08642666666667,0.0,328120.06060454715,4689377.209072866,19,T,3.4,"$GPGGA,202104.000,4220.2605,N,07105.1856,W,1,05,3.4,23.2,M,-33.8,M,,0000*53
",1711675263,999999761
1711657265.2658787,266,1711657265,247545957,,42.33766,-71.08645666666666,0.0,328117.5482305479,4689375.604079525,19,T,3.4,"$GPGGA,202105.000,4220.2596,N,07105.1874,W,1,05,3.4,22.9,M,-33.8,M,,0000*51
",1711675264,999999284
1711657266.2651172,267,1711657266,252720594,,42.33764,-71.08649333333334,0.0,328114.4730085174,4689373.4573515635,19,T,3.4,"$GPGGA,202106.000,4220.2584,N,07105.1896,W,1,05,3.4,22.6,M,-33.8,M,,0000*52
",1711675265,999999761
