Time,header.seq,header.stamp.secs,header.stamp.nsecs,header.frame_id,latitude,longitude,altitude,utm_easting,utm_northing,zone,letter,hdop,gpgga_read
1713987552.0866148,433,1713987552,0,GPS1_FRAME,42.33452666666667,-71.09176166666667,16.1,327671.94503255177,4689038.408580004,19,T,1.0,"$GPGGA,193912.000,4220.0716,N,07105.5057,W,1,10,1.0,16.1,M,-33.8,M,,0000*5C
"
1713987553.0850224,434,1713987553,0,GPS1_FRAME,42.33452666666667,-71.09176166666667,16.1,327671.94503255177,4689038.408580004,19,T,1.0,"$GPGGA,193913.000,4220.0716,N,07105.5057,W,1,10,1.0,16.1,M,-33.8,M,,0000*5D
"
1713987554.085587,435,1713987554,0,GPS1_FRAME,42.33452666666667,-71.09176166666667,16.1,327671.94503255177,4689038.408580004,19,T,1.0,"$GPGGA,193914.000,4220.0716,N,07105.5057,W,1,10,1.0,16.1,M,-33.8,M,,0000*5A
"
1713987555.086351,436,1713987555,0,GPS1_FRAME,42.33452666666667,-71.09176166666667,16.1,327671.94503255177,4689038.408580004,19,T,1.0,"$GPGGA,193915.000,4220.0716,N,07105.5057,W,1,10,1.0,16.1,M,-33.8,M,,0000*5B
"
1713987556.0862508,437,1713987556,0,GPS1_FRAME,42.33452666666667,-71.09176166666667,16.1,327671.94503255177,4689038.408580004,19,T,1.0,"$GPGGA,193916.000,4220.0716,N,07105.5057,W,1,10,1.0,16.1,M,-33.8,M,,0000*58
"
1713987557.085275,438,1713987557,0,GPS1_FRAME,42.33452666666667,-71.09176166666667,16.1,327671.94503255177,4689038.408580004,19,T,1.0,"$GPGGA,193917.000,4220.0716,N,07105.5057,W,1,10,1.0,16.1,M,-33.8,M,,0000*59
"
1713987558.0867712,439,1713987558,0,GPS1_FRAME,42.33452666666667,-71.09176166666667,16.1,327671.94503255177,4689038.408580004,19,T,1.0,"$GPGGA,193918.000,4220.0716,N,07105.5057,W,1,10,1.0,16.1,M,-33.8,M,,0000*56
"
1713987559.0860167,440,1713987559,0,GPS1_FRAME,42.33452666666667,-71.09176166666667,16.1,327671.94503255177,4689038.408580004,19,T,1.0,"$GPGGA,193919.000,4220.0716,N,07105.5057,W,1,10,1.0,16.1,M,-33.8,M,,0000*57
"
1713987560.08648,441,1713987560,0,GPS1_FRAME,42.33452666666667,-71.09176166666667,16.1,327671.94503255177,4689038.408580004,19,T,1.0,"$GPGGA,193920.000,4220.0716,N,07105.5057,W,1,10,1.0,16.1,M,-33.8,M,,0000*5D
"
1713987561.0852318,442,1713987561,0,GPS1_FRAME,42.33452666666667,-71.09176166666667,16.1,327671.94503255177,4689038.408580004,19,T,1.0,"$GPGGA,193921.000,4220.0716,N,07105.5057,W,1,10,1.0,16.1,M,-33.8,M,,0000*5C
"
1713987562.0852551,443,1713987562,0,GPS1_FRAME,42.33452666666667,-71.09176166666667,16.1,327671.94503255177,4689038.408580004,19,T,1.0,"$GPGGA,193922.000,4220.0716,N,07105.5057,W,1,10,1.0,16.1,M,-33.8,M,,0000*5F
"
1713987563.08569,444,1713987563,0,GPS1_FRAME,42.33452666666667,-71.09176166666667,16.1,327671.94503255177,4689038.408580004,19,T,1.0,"$GPGGA,193923.000,4220.0716,N,07105.5057,W,1,10,1.0,16.1,M,-33.8,M,,0000*5E
"
1713987564.0863943,445,1713987564,0,GPS1_FRAME,42.33452666666667,-71.09176166666667,16.1,327671.94503255177,4689038.408580004,19,T,1.0,"$GPGGA,193924.000,4220.0716,N,07105.5057,W,1,10,1.0,16.1,M,-33.8,M,,0000*59
"
1713987565.084903,446,1713987565,0,GPS1_FRAME,42.33452666666667,-71.09176166666667,16.1,327671.94503255177,4689038.408580004,19,T,1.0,"$GPGGA,193925.000,4220.0716,N,07105.5057,W,1,10,1.0,16.1,M,-33.8,M,,0000*58
"
1713987566.0853043,447,1713987566,0,GPS1_FRAME,42.33452666666667,-71.09176166666667,16.1,327671.94503255177,4689038.408580004,19,T,1.0,"$GPGGA,193926.000,4220.0716,N,07105.5057,W,1,10,1.0,16.1,M,-33.8,M,,0000*5B
"
1713987567.0857453,448,1713987567,0,GPS1_FRAME,42.33452666666667,-71.09176166666667,16.1,327671.94503255177,4689038.408580004,19,T,1.0,"$GPGGA,193927.000,4220.0716,N,07105.5057,W,1,10,1.0,16.1,M,-33.8,M,,0000*5A
"
1713987568.085703,449,1713987568,0,GPS1_FRAME,42.33452666666667,-71.09176166666667,16.1,327671.94503255177,4689038.408580004,19,T,1.0,"$GPGGA,193928.000,4220.0716,N,07105.5057,W,1,10,1.0,16.1,M,-33.8,M,,0000*55
"
1713987569.0847242,450,1713987569,0,GPS1_FRAME,42.33452666666667,-71.09176166666667,16.1,327671.94503255177,4689038.408580004,19,T,1.0,"$GPGGA,193929.000,4220.0716,N,07105.5057,W,1,10,1.0,16.1,M,-33.8,M,,0000*54
"
1713987570.0857747,451,1713987570,0,GPS1_FRAME,42.33452666666667,-71.09176166666667,16.1,327671.94503255177,4689038.408580004,19,T,1.0,"$GPGGA,193930.000,4220.0716,N,07105.5057,W,1,10,1.0,16.1,M,-33.8,M,,0000*5C
"
1713987571.0860791,452,1713987571,0,GPS1_FRAME,42.33452666666667,-71.09176166666667,16.1,327671.94503255177,4689038.408580004,19,T,1.0,"$GPGGA,193931.000,4220.0716,N,07105.5057,W,1,10,1.0,16.1,M,-33.8,M,,0000*5D
"
1713987572.0854132,453,1713987572,0,GPS1_FRAME,42.33452666666667,-71.09176166666667,16.1,327671.94503255177,4689038.408580004,19,T,1.0,"$GPGGA,193932.000,4220.0716,N,07105.5057,W,1,10,1.0,16.1,M,-33.8,M,,0000*5E
"
1713987573.0854857,454,1713987573,0,GPS1_FRAME,42.33452666666667,-71.09176166666667,16.1,327671.94503255177,4689038.408580004,19,T,1.0,"$GPGGA,193933.000,4220.0716,N,07105.5057,W,1,10,1.0,16.1,M,-33.8,M,,0000*5F
"
1713987574.08523,455,1713987574,0,GPS1_FRAME,42.33452666666667,-71.09176166666667,16.1,327671.94503255177,4689038.408580004,19,T,1.0,"$GPGGA,193934.000,4220.0716,N,07105.5057,W,1,10,1.0,16.1,M,-33.8,M,,0000*58
"
1713987575.0868561,456,1713987575,0,GPS1_FRAME,42.33452666666667,-71.09176166666667,16.1,327671.94503255177,4689038.408580004,19,T,1.0,"$GPGGA,193935.000,4220.0716,N,07105.5057,W,1,10,1.0,16.1,M,-33.8,M,,0000*59
"
1713987576.087727,457,1713987576,0,GPS1_FRAME,42.33452666666667,-71.09176166666667,16.1,327671.94503255177,4689038.408580004,19,T,1.0,"$GPGGA,193936.000,4220.0716,N,07105.5057,W,1,10,1.0,16.1,M,-33.8,M,,0000*5A
"
1713987577.0848713,458,1713987577,0,GPS1_FRAME,42.33452666666667,-71.09176166666667,16.1,327671.94503255177,4689038.408580004,19,T,1.0,"$GPGGA,193937.000,4220.0716,N,07105.5057,W,1,10,1.0,16.1,M,-33.8,M,,0000*5B
"
1713987578.0840392,459,1713987578,0,GPS1_FRAME,42.33452666666667,-71.09176166666667,16.1,327671.94503255177,4689038.408580004,19,T,1.0,"$GPGGA,193938.000,4220.0716,N,07105.5057,W,1,10,1.0,16.1,M,-33.8,M,,0000*54
"
1713987579.085823,460,1713987579,0,GPS1_FRAME,42.33452666666667,-71.09176166666667,16.1,327671.94503255177,4689038.408580004,19,T,1.0,"$GPGGA,193939.000,4220.0716,N,07105.5057,W,1,10,1.0,16.1,M,-33.8,M,,0000*55
"
1713987580.0848274,461,1713987580,0,GPS1_FRAME,42.33452666666667,-71.09176166666667,16.1,327671.94503255177,4689038.408580004,19,T,1.0,"$GPGGA,193940.000,4220.0716,N,07105.5057,W,1,10,1.0,16.1,M,-33.8,M,,0000*5B
"
1713987581.084366,462,1713987581,0,GPS1_FRAME,42.33452666666667,-71.09176166666667,16.1,327671.94503255177,4689038.408580004,19,T,1.0,"$GPGGA,193941.000,4220.0716,N,07105.5057,W,1,10,1.0,16.1,M,-33.8,M,,0000*5A
"
1713987582.086961,463,1713987582,0,GPS1_FRAME,42.33452666666667,-71.09176166666667,16.1,327671.94503255177,4689038.408580004,19,T,1.0,"$GPGGA,193942.000,4220.0716,N,07105.5057,W,1,10,1.0,16.1,M,-33.8,M,,0000*59
"
1713987583.086656,464,1713987583,0,GPS1_FRAME,42.33452666666667,-71.09176166666667,16.1,327671.94503255177,4689038.408580004,19,T,1.0,"$GPGGA,193943.000,4220.0716,N,07105.5057,W,1,10,1.0,16.1,M,-33.8,M,,0000*58
"
1713987584.0860114,465,1713987584,0,GPS1_FRAME,42.334525,-71.09176166666667,16.0,327671.94048024295,4689038.223509417,19,T,1.0,"$GPGGA,193944.000,4220.0715,N,07105.5057,W,1,10,1.0,16.0,M,-33.8,M,,0000*5D
"
1713987585.0851996,466,1713987585,0,GPS1_FRAME,42.33452333333334,-71.09176166666667,16.0,327671.93592793425,4689038.03843883,19,T,1.0,"$GPGGA,193945.000,4220.0714,N,07105.5057,W,1,10,1.0,16.0,M,-33.8,M,,0000*5D
"
1713987586.085453,467,1713987586,0,GPS1_FRAME,42.334518333333335,-71.09176333333333,16.0,327671.7849582712,4689037.486604643,19,T,1.0,"$GPGGA,193946.000,4220.0711,N,07105.5058,W,1,10,1.0,16.0,M,-33.8,M,,0000*54
"
1713987587.087053,468,1713987587,0,GPS1_FRAME,42.334513333333334,-71.09176166666667,16.1,327671.90861408506,4689036.928015307,19,T,1.0,"$GPGGA,193947.000,4220.0708,N,07105.5057,W,1,10,1.0,16.1,M,-33.8,M,,0000*53
"
1713987588.0882804,469,1713987588,0,GPS1_FRAME,42.33450666666667,-71.09175833333333,16.1,327672.16503038985,4689036.180977812,19,T,1.0,"$GPGGA,193948.000,4220.0704,N,07105.5055,W,1,10,1.0,16.1,M,-33.8,M,,0000*52
"
1713987589.0876634,470,1713987589,0,GPS1_FRAME,42.3345,-71.09175333333333,16.1,327672.55875953264,4689035.430562766,19,T,1.0,"$GPGGA,193949.000,4220.0700,N,07105.5052,W,1,10,1.0,16.1,M,-33.8,M,,0000*50
"
1713987590.0868115,471,1713987590,0,GPS1_FRAME,42.334491666666665,-71.09175,16.2,327672.8106236879,4689034.498454714,19,T,1.0,"$GPGGA,193950.000,4220.0695,N,07105.5050,W,1,10,1.0,16.2,M,-33.8,M,,0000*54
"
1713987591.0873308,472,1713987591,0,GPS1_FRAME,42.334485,-71.091745,16.1,327673.20435300644,4689033.748039712,19,T,1.0,"$GPGGA,193951.000,4220.0691,N,07105.5047,W,1,10,1.0,16.1,M,-33.8,M,,0000*54
"
1713987592.087916,473,1713987592,0,GPS1_FRAME,42.33447833333334,-71.09174166666666,16.1,327673.46076958964,4689033.001002277,19,T,1.0,"$GPGGA,193952.000,4220.0687,N,07105.5045,W,1,10,1.0,16.1,M,-33.8,M,,0000*52
"
1713987593.0872562,474,1713987593,0,GPS1_FRAME,42.33447,-71.09173833333334,16.0,327673.7126339758,4689032.068894267,19,T,1.0,"$GPGGA,193953.000,4220.0682,N,07105.5043,W,1,10,1.0,16.0,M,-33.8,M,,0000*51
"
1713987594.0877523,475,1713987594,0,GPS1_FRAME,42.33446333333333,-71.09173333333334,15.9,327674.1063635449,4689031.318479325,19,T,1.0,"$GPGGA,193954.000,4220.0678,N,07105.5040,W,1,10,1.0,15.9,M,-33.8,M,,0000*5A
"
1713987595.087587,476,1713987595,0,GPS1_FRAME,42.334455,-71.09172833333334,15.8,327674.49554097536,4689030.382993824,19,T,1.0,"$GPGGA,193955.000,4220.0673,N,07105.5037,W,1,10,1.0,15.8,M,-33.8,M,,0000*51
"
1713987596.0867712,477,1713987596,0,GPS1_FRAME,42.334448333333334,-71.09172333333333,15.8,327674.8892707346,4689029.632578934,19,T,1.0,"$GPGGA,193956.000,4220.0669,N,07105.5034,W,1,10,1.0,15.8,M,-33.8,M,,0000*5A
"
1713987597.0864441,478,1713987597,0,GPS1_FRAME,42.33444166666666,-71.09171833333333,15.4,327675.2830005854,4689028.882164066,19,T,1.0,"$GPGGA,193957.000,4220.0665,N,07105.5031,W,1,10,1.0,15.4,M,-33.8,M,,0000*5E
"
1713987598.085259,479,1713987598,0,GPS1_FRAME,42.33443333333334,-71.09171666666667,15.4,327675.3975524745,4689027.953433643,19,T,1.0,"$GPGGA,193958.000,4220.0660,N,07105.5030,W,1,10,1.0,15.4,M,-33.8,M,,0000*55
"
1713987599.0866976,480,1713987599,0,GPS1_FRAME,42.334426666666666,-71.091715,15.3,327675.5166566061,4689027.209773804,19,T,1.0,"$GPGGA,193959.000,4220.0656,N,07105.5029,W,1,10,1.0,15.3,M,-33.8,M,,0000*5E
"
1713987600.0870109,481,1713987600,0,GPS1_FRAME,42.33442,-71.09171166666667,15.3,327675.77307372284,4689026.462736474,19,T,1.0,"$GPGGA,194000.000,4220.0652,N,07105.5027,W,1,10,1.0,15.3,M,-33.8,M,,0000*56
"
1713987601.0850413,482,1713987601,0,GPS1_FRAME,42.33441166666667,-71.09170833333333,15.3,327676.02493871714,4689025.530628573,19,T,1.0,"$GPGGA,194001.000,4220.0647,N,07105.5025,W,1,10,1.0,15.3,M,-33.8,M,,0000*51
"
1713987602.0857277,483,1713987602,0,GPS1_FRAME,42.334405,-71.091705,15.2,327676.2813559603,4689024.783591267,19,T,1.0,"$GPGGA,194002.000,4220.0643,N,07105.5023,W,1,10,1.0,15.2,M,-33.8,M,,0000*51
"
1713987603.0858467,484,1713987603,0,GPS1_FRAME,42.33439666666666,-71.09170166666667,15.1,327676.5332211012,4689023.851483391,19,T,1.0,"$GPGGA,194003.000,4220.0638,N,07105.5021,W,1,10,1.0,15.1,M,-33.8,M,,0000*5D
"
1713987604.0838697,485,1713987604,0,GPS1_FRAME,42.33438833333334,-71.09169833333333,15.0,327676.78508631414,4689022.919375527,19,T,1.0,"$GPGGA,194004.000,4220.0633,N,07105.5019,W,1,10,1.0,15.0,M,-33.8,M,,0000*5B
"
1713987605.0834355,486,1713987605,0,GPS1_FRAME,42.334381666666665,-71.09169666666666,14.9,327676.90419071924,4689022.175715725,19,T,1.0,"$GPGGA,194005.000,4220.0629,N,07105.5018,W,1,10,1.0,14.9,M,-33.8,M,,0000*58
"
1713987606.0840755,487,1713987606,0,GPS1_FRAME,42.33437333333333,-71.09169333333334,14.8,327677.15605605853,4689021.24360788,19,T,1.0,"$GPGGA,194006.000,4220.0624,N,07105.5016,W,1,09,1.0,14.8,M,-33.8,M,,0000*51
"
1713987607.0852933,488,1713987607,0,GPS1_FRAME,42.334365,-71.09169166666666,14.8,327677.27060840285,4689020.314877506,19,T,1.0,"$GPGGA,194007.000,4220.0619,N,07105.5015,W,1,10,1.0,14.8,M,-33.8,M,,0000*55
"
1713987608.0853217,489,1713987608,0,GPS1_FRAME,42.334358333333334,-71.09168833333334,14.6,327677.5270260107,4689019.567840261,19,T,1.0,"$GPGGA,194008.000,4220.0615,N,07105.5013,W,1,10,1.0,14.6,M,-33.8,M,,0000*5E
"
1713987609.084103,490,1713987609,0,GPS1_FRAME,42.33435,-71.09168333333334,14.6,327677.9162046626,4689018.632354999,19,T,1.0,"$GPGGA,194009.000,4220.0610,N,07105.5010,W,1,10,1.0,14.6,M,-33.8,M,,0000*59
"
1713987610.0842147,491,1713987610,0,GPS1_FRAME,42.33434166666667,-71.09167666666667,14.5,327678.4426965489,4689017.693492323,19,T,1.0,"$GPGGA,194010.000,4220.0605,N,07105.5006,W,1,10,1.0,14.5,M,-33.8,M,,0000*51
"
1713987611.0849187,492,1713987611,0,GPS1_FRAME,42.33433333333333,-71.09167,14.4,327678.96918858594,4689016.754629695,19,T,1.0,"$GPGGA,194011.000,4220.0600,N,07105.5002,W,1,10,1.0,14.4,M,-33.8,M,,0000*50
"
1713987612.0854466,493,1713987612,0,GPS1_FRAME,42.33432666666667,-71.09166333333333,14.4,327679.5002328487,4689016.000837691,19,T,1.0,"$GPGGA,194012.000,4220.0596,N,07105.4998,W,1,10,1.0,14.4,M,-33.8,M,,0000*54
"
1713987613.0833576,494,1713987613,0,GPS1_FRAME,42.33432166666667,-71.09165666666667,14.5,327680.0358292918,4689015.432116311,19,T,1.0,"$GPGGA,194013.000,4220.0593,N,07105.4994,W,1,10,1.0,14.5,M,-33.8,M,,0000*5D
"
1713987614.0842462,495,1713987614,0,GPS1_FRAME,42.334313333333334,-71.09165166666666,14.5,327680.4250085415,4689014.49663121,19,T,1.0,"$GPGGA,194014.000,4220.0588,N,07105.4991,W,1,10,1.0,14.5,M,-33.8,M,,0000*55
"
1713987615.085575,496,1713987615,0,GPS1_FRAME,42.334305,-71.091645,14.5,327680.9515011094,4689013.557768749,19,T,1.0,"$GPGGA,194015.000,4220.0583,N,07105.4987,W,1,10,1.0,14.5,M,-33.8,M,,0000*58
"
1713987616.0852492,497,1713987616,0,GPS1_FRAME,42.33429666666667,-71.09163666666667,14.4,327681.6153070456,4689012.615528961,19,T,1.0,"$GPGGA,194016.000,4220.0578,N,07105.4982,W,1,10,1.0,14.4,M,-33.8,M,,0000*5B
"
1713987617.0842464,498,1713987617,0,GPS1_FRAME,42.33429,-71.09163,14.4,327682.1463519301,4689011.86173718,19,T,1.0,"$GPGGA,194017.000,4220.0574,N,07105.4978,W,1,10,1.0,14.4,M,-33.8,M,,0000*53
"
1713987618.0848794,499,1713987618,0,GPS1_FRAME,42.33428333333333,-71.09162333333333,14.3,327682.67739693297,4689011.107945442,19,T,1.0,"$GPGGA,194018.000,4220.0570,N,07105.4974,W,1,10,1.0,14.3,M,-33.8,M,,0000*53
"
1713987619.0837,500,1713987619,0,GPS1_FRAME,42.334275,-71.091615,14.4,327683.34120334976,4689010.1657058345,19,T,1.0,"$GPGGA,194019.000,4220.0565,N,07105.4969,W,1,10,1.0,14.4,M,-33.8,M,,0000*5D
"
1713987620.084332,501,1713987620,0,GPS1_FRAME,42.334265,-71.09160666666666,14.1,327684.0004580073,4689009.038395716,19,T,1.0,"$GPGGA,194020.000,4220.0559,N,07105.4964,W,1,10,1.0,14.1,M,-33.8,M,,0000*50
"
1713987621.0803182,502,1713987621,0,GPS1_FRAME,42.33425666666667,-71.0916,13.9,327684.52695150627,4689008.099533559,19,T,1.0,"$GPGGA,194021.000,4220.0554,N,07105.4960,W,1,09,1.0,13.9,M,-33.8,M,,0000*5F
"
1713987622.0853,503,1713987622,0,GPS1_FRAME,42.33425,-71.09159333333334,13.8,327685.0579970696,4689007.345742023,19,T,1.0,"$GPGGA,194022.000,4220.0550,N,07105.4956,W,1,10,1.0,13.8,M,-33.8,M,,0000*54
"
1713987623.0845413,504,1713987623,0,GPS1_FRAME,42.334246666666665,-71.09159,13.8,327685.3235198967,4689006.96884627,19,T,1.0,"$GPGGA,194023.000,4220.0548,N,07105.4954,W,1,10,1.0,13.8,M,-33.8,M,,0000*5E
"
1713987624.0860019,505,1713987624,0,GPS1_FRAME,42.334246666666665,-71.09159,13.7,327685.3235198967,4689006.96884627,19,T,1.0,"$GPGGA,194024.000,4220.0548,N,07105.4954,W,1,10,1.0,13.7,M,-33.8,M,,0000*56
"
1713987625.0843885,506,1713987625,0,GPS1_FRAME,42.334246666666665,-71.09159,13.7,327685.3235198967,4689006.96884627,19,T,1.0,"$GPGGA,194025.000,4220.0548,N,07105.4954,W,1,10,1.0,13.7,M,-33.8,M,,0000*57
"
1713987626.0855613,507,1713987626,0,GPS1_FRAME,42.334246666666665,-71.09159,13.6,327685.3235198967,4689006.96884627,19,T,1.0,"$GPGGA,194026.000,4220.0548,N,07105.4954,W,1,10,1.0,13.6,M,-33.8,M,,0000*55
"
1713987627.0861173,508,1713987627,0,GPS1_FRAME,42.334246666666665,-71.09158833333333,13.6,327685.4608332269,4689006.965468977,19,T,1.0,"$GPGGA,194027.000,4220.0548,N,07105.4953,W,1,10,1.0,13.6,M,-33.8,M,,0000*53
"
1713987628.0828557,509,1713987628,0,GPS1_FRAME,42.334246666666665,-71.09159,13.6,327685.3235198967,4689006.96884627,19,T,1.0,"$GPGGA,194028.000,4220.0548,N,07105.4954,W,1,10,1.0,13.6,M,-33.8,M,,0000*5B
"
1713987629.0818894,510,1713987629,0,GPS1_FRAME,42.334246666666665,-71.09159,13.6,327685.3235198967,4689006.96884627,19,T,1.0,"$GPGGA,194029.000,4220.0548,N,07105.4954,W,1,10,1.0,13.6,M,-33.8,M,,0000*5A
"
1713987630.0842955,511,1713987630,0,GPS1_FRAME,42.334246666666665,-71.09159,13.6,327685.3235198967,4689006.96884627,19,T,1.0,"$GPGGA,194030.000,4220.0548,N,07105.4954,W,1,10,1.0,13.6,M,-33.8,M,,0000*52
"
1713987631.0848312,512,1713987631,0,GPS1_FRAME,42.334246666666665,-71.09159,13.6,327685.3235198967,4689006.96884627,19,T,1.0,"$GPGGA,194031.000,4220.0548,N,07105.4954,W,1,10,1.0,13.6,M,-33.8,M,,0000*53
"
1713987632.0839386,513,1713987632,0,GPS1_FRAME,42.334248333333335,-71.09159666666666,13.4,327684.7788184964,4689007.167426051,19,T,1.0,"$GPGGA,194032.000,4220.0549,N,07105.4958,W,1,10,1.0,13.4,M,-33.8,M,,0000*5F
"
1713987633.083811,514,1713987633,0,GPS1_FRAME,42.33425,-71.091605,12.9,327684.096803802,4689007.369383193,19,T,1.0,"$GPGGA,194033.000,4220.0550,N,07105.4963,W,1,10,1.0,12.9,M,-33.8,M,,0000*52
"
1713987634.0836976,515,1713987634,0,GPS1_FRAME,42.33425166666667,-71.09161166666667,12.7,327683.5521024653,4689007.567963069,19,T,1.0,"$GPGGA,194034.000,4220.0551,N,07105.4967,W,1,10,1.0,12.7,M,-33.8,M,,0000*5E
"
1713987635.0863812,516,1713987635,0,GPS1_FRAME,42.33425166666667,-71.091615,12.5,327683.277475822,4689007.574717736,19,T,1.0,"$GPGGA,194035.000,4220.0551,N,07105.4969,W,1,10,1.0,12.5,M,-33.8,M,,0000*53
"
1713987636.086371,517,1713987636,0,GPS1_FRAME,42.33425,-71.09162,12.3,327682.86098388524,4689007.399779176,19,T,1.0,"$GPGGA,194036.000,4220.0550,N,07105.4972,W,1,10,1.0,12.3,M,-33.8,M,,0000*5D
"
1713987637.0856352,518,1713987637,0,GPS1_FRAME,42.33425,-71.091625,12.2,327682.4490439134,4689007.40991122,19,T,1.0,"$GPGGA,194037.000,4220.0550,N,07105.4975,W,1,10,1.0,12.2,M,-33.8,M,,0000*5A
"
1713987638.0856998,519,1713987638,0,GPS1_FRAME,42.33425,-71.09163,12.3,327682.03710394143,4689007.420043288,19,T,1.0,"$GPGGA,194038.000,4220.0550,N,07105.4978,W,1,10,1.0,12.3,M,-33.8,M,,0000*59
"
1713987639.0857682,520,1713987639,0,GPS1_FRAME,42.33425,-71.09163,12.3,327682.03710394143,4689007.420043288,19,T,1.0,"$GPGGA,194039.000,4220.0550,N,07105.4978,W,1,10,1.0,12.3,M,-33.8,M,,0000*58
"
1713987640.086048,521,1713987640,0,GPS1_FRAME,42.33425,-71.09163,12.3,327682.03710394143,4689007.420043288,19,T,1.0,"$GPGGA,194040.000,4220.0550,N,07105.4978,W,1,10,1.0,12.3,M,-33.8,M,,0000*56
"
1713987641.085032,522,1713987641,0,GPS1_FRAME,42.33425,-71.09163,12.3,327682.03710394143,4689007.420043288,19,T,1.0,"$GPGGA,194041.000,4220.0550,N,07105.4978,W,1,10,1.0,12.3,M,-33.8,M,,0000*57
"
1713987642.0849464,523,1713987642,0,GPS1_FRAME,42.33425,-71.09163,12.3,327682.03710394143,4689007.420043288,19,T,1.0,"$GPGGA,194042.000,4220.0550,N,07105.4978,W,1,10,1.0,12.3,M,-33.8,M,,0000*54
"
1713987643.081929,524,1713987643,0,GPS1_FRAME,42.334248333333335,-71.09163166666667,12.8,327681.89523861476,4689007.23835007,19,T,1.0,"$GPGGA,194043.000,4220.0549,N,07105.4979,W,1,10,1.0,12.8,M,-33.8,M,,0000*57
"
1713987644.0856981,525,1713987644,0,GPS1_FRAME,42.334248333333335,-71.09163166666667,12.8,327681.89523861476,4689007.23835007,19,T,1.0,"$GPGGA,194044.000,4220.0549,N,07105.4979,W,1,10,1.0,12.8,M,-33.8,M,,0000*50
"
1713987645.0836647,526,1713987645,0,GPS1_FRAME,42.334248333333335,-71.09163166666667,12.8,327681.89523861476,4689007.23835007,19,T,1.0,"$GPGGA,194045.000,4220.0549,N,07105.4979,W,1,10,1.0,12.8,M,-33.8,M,,0000*51
"
1713987646.0847828,527,1713987646,0,GPS1_FRAME,42.334248333333335,-71.09163166666667,12.8,327681.89523861476,4689007.23835007,19,T,1.0,"$GPGGA,194046.000,4220.0549,N,07105.4979,W,1,10,1.0,12.8,M,-33.8,M,,0000*52
"
1713987647.0851817,528,1713987647,0,GPS1_FRAME,42.334248333333335,-71.09163166666667,12.8,327681.89523861476,4689007.23835007,19,T,1.0,"$GPGGA,194047.000,4220.0549,N,07105.4979,W,1,10,1.0,12.8,M,-33.8,M,,0000*53
"
1713987648.0853064,529,1713987648,0,GPS1_FRAME,42.334248333333335,-71.09163166666667,12.8,327681.89523861476,4689007.23835007,19,T,1.0,"$GPGGA,194048.000,4220.0549,N,07105.4979,W,1,10,1.0,12.8,M,-33.8,M,,0000*5C
"
1713987649.0838864,530,1713987649,0,GPS1_FRAME,42.334248333333335,-71.09163166666667,12.8,327681.89523861476,4689007.23835007,19,T,1.0,"$GPGGA,194049.000,4220.0549,N,07105.4979,W,1,10,1.0,12.8,M,-33.8,M,,0000*5D
"
1713987650.083704,531,1713987650,0,GPS1_FRAME,42.334248333333335,-71.09163166666667,12.8,327681.89523861476,4689007.23835007,19,T,1.0,"$GPGGA,194050.000,4220.0549,N,07105.4979,W,1,10,1.0,12.8,M,-33.8,M,,0000*55
"
1713987651.0847087,532,1713987651,0,GPS1_FRAME,42.334248333333335,-71.09163166666667,12.8,327681.89523861476,4689007.23835007,19,T,1.0,"$GPGGA,194051.000,4220.0549,N,07105.4979,W,1,10,1.0,12.8,M,-33.8,M,,0000*54
"
1713987652.0843728,533,1713987652,0,GPS1_FRAME,42.334248333333335,-71.09163166666667,12.8,327681.89523861476,4689007.23835007,19,T,1.0,"$GPGGA,194052.000,4220.0549,N,07105.4979,W,1,10,1.0,12.8,M,-33.8,M,,0000*57
"
1713987653.0840592,534,1713987653,0,GPS1_FRAME,42.334248333333335,-71.09163166666667,12.8,327681.89523861476,4689007.23835007,19,T,1.0,"$GPGGA,194053.000,4220.0549,N,07105.4979,W,1,10,1.0,12.8,M,-33.8,M,,0000*56
"
1713987654.0855505,535,1713987654,0,GPS1_FRAME,42.334248333333335,-71.09163166666667,12.8,327681.89523861476,4689007.23835007,19,T,1.0,"$GPGGA,194054.000,4220.0549,N,07105.4979,W,1,10,1.0,12.8,M,-33.8,M,,0000*51
"
1713987655.0854213,536,1713987655,0,GPS1_FRAME,42.334248333333335,-71.09163166666667,12.8,327681.89523861476,4689007.23835007,19,T,1.0,"$GPGGA,194055.000,4220.0549,N,07105.4979,W,1,10,1.0,12.8,M,-33.8,M,,0000*50
"
1713987656.085176,537,1713987656,0,GPS1_FRAME,42.334248333333335,-71.09163166666667,12.8,327681.89523861476,4689007.23835007,19,T,1.0,"$GPGGA,194056.000,4220.0549,N,07105.4979,W,1,10,1.0,12.8,M,-33.8,M,,0000*53
"
1713987657.0827632,538,1713987657,0,GPS1_FRAME,42.334248333333335,-71.09163166666667,12.8,327681.89523861476,4689007.23835007,19,T,1.0,"$GPGGA,194057.000,4220.0549,N,07105.4979,W,1,10,1.0,12.8,M,-33.8,M,,0000*52
"
1713987658.0834696,539,1713987658,0,GPS1_FRAME,42.334248333333335,-71.09163166666667,12.8,327681.89523861476,4689007.23835007,19,T,1.0,"$GPGGA,194058.000,4220.0549,N,07105.4979,W,1,10,1.0,12.8,M,-33.8,M,,0000*5D
"
1713987659.0838382,540,1713987659,0,GPS1_FRAME,42.334248333333335,-71.09163333333333,12.8,327681.75792528776,4689007.241727434,19,T,1.0,"$GPGGA,194059.000,4220.0549,N,07105.4980,W,1,10,1.0,12.8,M,-33.8,M,,0000*5A
"
1713987660.084225,541,1713987660,0,GPS1_FRAME,42.334248333333335,-71.09163333333333,12.8,327681.75792528776,4689007.241727434,19,T,1.0,"$GPGGA,194100.000,4220.0549,N,07105.4980,W,1,10,1.0,12.8,M,-33.8,M,,0000*57
"
1713987661.0831733,542,1713987661,0,GPS1_FRAME,42.334248333333335,-71.09163333333333,12.8,327681.75792528776,4689007.241727434,19,T,1.0,"$GPGGA,194101.000,4220.0549,N,07105.4980,W,1,10,1.0,12.8,M,-33.8,M,,0000*56
"
1713987662.0826383,543,1713987662,0,GPS1_FRAME,42.334248333333335,-71.09163333333333,12.8,327681.75792528776,4689007.241727434,19,T,1.0,"$GPGGA,194102.000,4220.0549,N,07105.4980,W,1,10,1.0,12.8,M,-33.8,M,,0000*55
"
1713987663.0837822,544,1713987663,0,GPS1_FRAME,42.33425,-71.09163333333333,12.8,327681.76247729274,4689007.426798012,19,T,1.0,"$GPGGA,194103.000,4220.0550,N,07105.4980,W,1,10,1.0,12.8,M,-33.8,M,,0000*5C
"
1713987664.0845647,545,1713987664,0,GPS1_FRAME,42.33425,-71.09163333333333,12.8,327681.76247729274,4689007.426798012,19,T,1.0,"$GPGGA,194104.000,4220.0550,N,07105.4980,W,1,10,1.0,12.8,M,-33.8,M,,0000*5B
"
1713987665.0833073,546,1713987665,0,GPS1_FRAME,42.33425,-71.09163333333333,12.8,327681.76247729274,4689007.426798012,19,T,1.0,"$GPGGA,194105.000,4220.0550,N,07105.4980,W,1,10,1.0,12.8,M,-33.8,M,,0000*5A
"
1713987666.0834205,547,1713987666,0,GPS1_FRAME,42.33425,-71.09163333333333,12.8,327681.76247729274,4689007.426798012,19,T,1.0,"$GPGGA,194106.000,4220.0550,N,07105.4980,W,1,10,1.0,12.8,M,-33.8,M,,0000*59
"
1713987667.0840688,548,1713987667,0,GPS1_FRAME,42.33425,-71.09163333333333,12.8,327681.76247729274,4689007.426798012,19,T,1.0,"$GPGGA,194107.000,4220.0550,N,07105.4980,W,1,10,1.0,12.8,M,-33.8,M,,0000*58
"
1713987668.08549,549,1713987668,0,GPS1_FRAME,42.33425,-71.09163333333333,12.8,327681.76247729274,4689007.426798012,19,T,1.0,"$GPGGA,194108.000,4220.0550,N,07105.4980,W,1,10,1.0,12.8,M,-33.8,M,,0000*57
"
1713987669.0842147,550,1713987669,0,GPS1_FRAME,42.33425166666667,-71.09163333333333,12.8,327681.7670292978,4689007.61186859,19,T,1.0,"$GPGGA,194109.000,4220.0551,N,07105.4980,W,1,10,1.0,12.8,M,-33.8,M,,0000*57
"
1713987670.0844617,551,1713987670,0,GPS1_FRAME,42.33425166666667,-71.09163333333333,12.8,327681.7670292978,4689007.61186859,19,T,1.0,"$GPGGA,194110.000,4220.0551,N,07105.4980,W,1,10,1.0,12.8,M,-33.8,M,,0000*5F
"
1713987671.0836942,552,1713987671,0,GPS1_FRAME,42.33425166666667,-71.09163333333333,12.8,327681.7670292978,4689007.61186859,19,T,1.0,"$GPGGA,194111.000,4220.0551,N,07105.4980,W,1,10,1.0,12.8,M,-33.8,M,,0000*5E
"
1713987672.0839686,553,1713987672,0,GPS1_FRAME,42.33425166666667,-71.09163333333333,12.8,327681.7670292978,4689007.61186859,19,T,1.0,"$GPGGA,194112.000,4220.0551,N,07105.4980,W,1,10,1.0,12.8,M,-33.8,M,,0000*5D
"
1713987673.08433,554,1713987673,0,GPS1_FRAME,42.33425166666667,-71.09163333333333,12.8,327681.7670292978,4689007.61186859,19,T,1.0,"$GPGGA,194113.000,4220.0551,N,07105.4980,W,1,10,1.0,12.8,M,-33.8,M,,0000*5C
"
1713987674.0846112,555,1713987674,0,GPS1_FRAME,42.334253333333336,-71.091635,12.9,327681.63426798704,4689007.800316536,19,T,1.0,"$GPGGA,194114.000,4220.0552,N,07105.4981,W,1,10,1.0,12.9,M,-33.8,M,,0000*58
"
1713987675.0845938,556,1713987675,0,GPS1_FRAME,42.334253333333336,-71.09163666666667,13.0,327681.49695466884,4689007.8036939055,19,T,1.0,"$GPGGA,194115.000,4220.0552,N,07105.4982,W,1,10,1.0,13.0,M,-33.8,M,,0000*52
"
1713987676.0842156,557,1713987676,0,GPS1_FRAME,42.33425166666667,-71.09164333333334,13.2,327680.9431493731,4689007.632132831,19,T,1.0,"$GPGGA,194116.000,4220.0551,N,07105.4986,W,1,10,1.0,13.2,M,-33.8,M,,0000*54
"
1713987677.0837686,558,1713987677,0,GPS1_FRAME,42.33425666666667,-71.09164833333334,13.2,327680.54486552585,4689008.197476724,19,T,1.0,"$GPGGA,194117.000,4220.0554,N,07105.4989,W,1,10,1.0,13.2,M,-33.8,M,,0000*5F
"
1713987678.085425,559,1713987678,0,GPS1_FRAME,42.33425833333333,-71.09165666666667,13.0,327679.8628510355,4689008.399434284,19,T,1.0,"$GPGGA,194118.000,4220.0555,N,07105.4994,W,1,10,1.0,13.0,M,-33.8,M,,0000*5F
"
1713987679.083978,560,1713987679,0,GPS1_FRAME,42.33425666666667,-71.091665,12.8,327679.1717324275,4689008.231250755,19,T,1.0,"$GPGGA,194119.000,4220.0554,N,07105.4999,W,1,10,1.0,12.8,M,-33.8,M,,0000*5B
"
1713987680.0836418,561,1713987680,0,GPS1_FRAME,42.334253333333336,-71.09167166666667,12.6,327678.6133750089,4689007.874619285,19,T,1.0,"$GPGGA,194120.000,4220.0552,N,07105.5003,W,1,10,1.0,12.6,M,-33.8,M,,0000*52
"
1713987681.0828822,562,1713987681,0,GPS1_FRAME,42.33425166666667,-71.09167833333333,12.4,327678.0595696379,4689007.703058436,19,T,1.0,"$GPGGA,194121.000,4220.0551,N,07105.5007,W,1,10,1.0,12.4,M,-33.8,M,,0000*56
"
1713987682.0835683,563,1713987682,0,GPS1_FRAME,42.334248333333335,-71.09168666666666,12.2,327677.3638987908,4689007.349804502,19,T,1.0,"$GPGGA,194122.000,4220.0549,N,07105.5012,W,1,10,1.0,12.2,M,-33.8,M,,0000*5E
"
1713987683.084086,564,1713987683,0,GPS1_FRAME,42.334245,-71.09169666666666,12.1,327676.53091453656,4689006.999928101,19,T,1.0,"$GPGGA,194123.000,4220.0547,N,07105.5018,W,1,10,1.0,12.1,M,-33.8,M,,0000*58
"
1713987684.0853195,565,1713987684,0,GPS1_FRAME,42.334241666666664,-71.09170666666667,11.8,327675.69793019316,4689006.650051797,19,T,1.0,"$GPGGA,194124.000,4220.0545,N,07105.5024,W,1,10,1.0,11.8,M,-33.8,M,,0000*58
"
1713987685.0833578,566,1713987685,0,GPS1_FRAME,42.33423666666667,-71.09171666666667,11.6,327674.8603935772,4689006.1151050115,19,T,1.0,"$GPGGA,194125.000,4220.0542,N,07105.5030,W,1,10,1.0,11.6,M,-33.8,M,,0000*55
"
1713987686.083142,567,1713987686,0,GPS1_FRAME,42.33423333333333,-71.09173,11.3,327673.75278231944,4689005.771983937,19,T,1.0,"$GPGGA,194126.000,4220.0540,N,07105.5038,W,1,10,1.0,11.3,M,-33.8,M,,0000*59
"
1713987687.0837576,568,1713987687,0,GPS1_FRAME,42.334226666666666,-71.09174166666666,11.6,327672.77337983274,4689005.055344338,19,T,1.0,"$GPGGA,194127.000,4220.0536,N,07105.5045,W,1,10,1.0,11.6,M,-33.8,M,,0000*56
"
1713987688.0833201,569,1713987688,0,GPS1_FRAME,42.334221666666664,-71.09175166666667,11.8,327671.9358427942,4689004.52039789,19,T,1.0,"$GPGGA,194128.000,4220.0533,N,07105.5051,W,1,10,1.0,11.8,M,-33.8,M,,0000*57
"
1713987689.0834072,570,1713987689,0,GPS1_FRAME,42.33421666666667,-71.09176333333333,11.9,327670.9609922309,4689003.988829114,19,T,1.0,"$GPGGA,194129.000,4220.0530,N,07105.5058,W,1,10,1.0,11.9,M,-33.8,M,,0000*5D
"
1713987690.08561,571,1713987690,0,GPS1_FRAME,42.33421,-71.091775,12.2,327669.98158920347,4689003.272189888,19,T,1.0,"$GPGGA,194130.000,4220.0526,N,07105.5065,W,1,10,1.0,12.2,M,-33.8,M,,0000*54
"
1713987691.0841146,572,1713987691,0,GPS1_FRAME,42.334201666666665,-71.09178666666666,12.4,327668.9976336394,4689002.370480217,19,T,1.0,"$GPGGA,194131.000,4220.0521,N,07105.5072,W,1,10,1.0,12.4,M,-33.8,M,,0000*52
"
1713987692.0842268,573,1713987692,0,GPS1_FRAME,42.33419333333333,-71.09179833333333,12.5,327668.0136778242,4689001.468770678,19,T,1.0,"$GPGGA,194132.000,4220.0516,N,07105.5079,W,1,10,1.0,12.5,M,-33.8,M,,0000*5F
"
1713987693.0831482,574,1713987693,0,GPS1_FRAME,42.334185,-71.09181,12.6,327667.0297217578,4689000.56706127,19,T,1.0,"$GPGGA,194133.000,4220.0511,N,07105.5086,W,1,10,1.0,12.6,M,-33.8,M,,0000*5A
"
1713987694.0840974,575,1713987694,0,GPS1_FRAME,42.334176666666664,-71.09182,12.7,327666.183078927,4688999.661974327,19,T,1.0,"$GPGGA,194134.000,4220.0506,N,07105.5092,W,1,10,1.0,12.7,M,-33.8,M,,0000*5F
"
1713987695.0865793,576,1713987695,0,GPS1_FRAME,42.33417,-71.09182666666666,12.8,327665.6156153063,4688998.935202701,19,T,1.0,"$GPGGA,194135.000,4220.0502,N,07105.5096,W,1,10,1.0,12.8,M,-33.8,M,,0000*51
"
1713987696.0851803,577,1713987696,0,GPS1_FRAME,42.334165,-71.09183333333333,12.8,327665.0527040048,4688998.393501694,19,T,1.0,"$GPGGA,194136.000,4220.0499,N,07105.5100,W,1,10,1.0,12.8,M,-33.8,M,,0000*5F
"
1713987697.0851927,578,1713987697,0,GPS1_FRAME,42.33416,-71.09184166666667,12.9,327664.35247909604,4688997.855178433,19,T,1.0,"$GPGGA,194137.000,4220.0496,N,07105.5105,W,1,10,1.0,12.9,M,-33.8,M,,0000*55
"
1713987698.0853662,579,1713987698,0,GPS1_FRAME,42.334155,-71.09185166666667,13.0,327663.51494054525,4688997.320232952,19,T,1.0,"$GPGGA,194138.000,4220.0493,N,07105.5111,W,1,10,1.0,13.0,M,-33.8,M,,0000*52
"
1713987699.0853117,580,1713987699,0,GPS1_FRAME,42.33415166666666,-71.09186166666667,13.0,327662.68195436033,4688996.970358146,19,T,1.0,"$GPGGA,194139.000,4220.0491,N,07105.5117,W,1,10,1.0,13.0,M,-33.8,M,,0000*57
"
1713987700.0853212,581,1713987700,0,GPS1_FRAME,42.33414666666667,-71.09187,13.1,327661.9817291257,4688996.432035114,19,T,1.0,"$GPGGA,194140.000,4220.0488,N,07105.5122,W,1,10,1.0,13.1,M,-33.8,M,,0000*56
"
1713987701.0838807,582,1713987701,0,GPS1_FRAME,42.33414,-71.09187833333333,13.1,327661.2769512497,4688995.708641565,19,T,1.0,"$GPGGA,194141.000,4220.0484,N,07105.5127,W,1,10,1.0,13.1,M,-33.8,M,,0000*5E
"
1713987702.0853755,583,1713987702,0,GPS1_FRAME,42.334135,-71.09188333333333,12.9,327660.8513529333,4688995.163563126,19,T,1.0,"$GPGGA,194142.000,4220.0481,N,07105.5130,W,1,10,1.0,12.9,M,-33.8,M,,0000*57
"
1713987703.0846088,584,1713987703,0,GPS1_FRAME,42.33412833333333,-71.09189,12.6,327660.28388841014,4688994.436791908,19,T,1.0,"$GPGGA,194143.000,4220.0477,N,07105.5134,W,1,10,1.0,12.6,M,-33.8,M,,0000*54
"
1713987704.0846126,585,1713987704,0,GPS1_FRAME,42.33412166666667,-71.09189666666667,12.6,327659.716423773,4688993.710020735,19,T,1.0,"$GPGGA,194144.000,4220.0473,N,07105.5138,W,1,10,1.0,12.6,M,-33.8,M,,0000*5B
"
1713987705.083567,586,1713987705,0,GPS1_FRAME,42.33411666666667,-71.091905,12.7,327659.01619798923,4688993.171697982,19,T,1.0,"$GPGGA,194145.000,4220.0470,N,07105.5143,W,1,10,1.0,12.7,M,-33.8,M,,0000*54
"
1713987706.0844612,587,1713987706,0,GPS1_FRAME,42.334113333333335,-71.09191166666666,12.8,327658.4578383218,4688992.8150680605,19,T,1.0,"$GPGGA,194146.000,4220.0468,N,07105.5147,W,1,10,1.0,12.8,M,-33.8,M,,0000*55
"
1713987707.0852358,588,1713987707,0,GPS1_FRAME,42.33411,-71.091915,13.0,327658.17410585994,4688992.451682537,19,T,1.0,"$GPGGA,194147.000,4220.0466,N,07105.5149,W,1,10,1.0,13.0,M,-33.8,M,,0000*5D
"
1713987708.086892,589,1713987708,0,GPS1_FRAME,42.33410833333333,-71.09191666666666,13.1,327658.0322396194,4688992.269989781,19,T,1.0,"$GPGGA,194148.000,4220.0465,N,07105.5150,W,1,10,1.0,13.1,M,-33.8,M,,0000*58
"
1713987709.0845628,590,1713987709,0,GPS1_FRAME,42.33410833333333,-71.09191666666666,13.1,327658.0322396194,4688992.269989781,19,T,1.0,"$GPGGA,194149.000,4220.0465,N,07105.5150,W,1,10,1.0,13.1,M,-33.8,M,,0000*59
"
1713987710.08459,591,1713987710,0,GPS1_FRAME,42.33410833333333,-71.09191666666666,13.1,327658.0322396194,4688992.269989781,19,T,1.0,"$GPGGA,194150.000,4220.0465,N,07105.5150,W,1,10,1.0,13.1,M,-33.8,M,,0000*51
"
1713987711.0852673,592,1713987711,0,GPS1_FRAME,42.33410833333333,-71.09191666666666,13.1,327658.0322396194,4688992.269989781,19,T,1.0,"$GPGGA,194151.000,4220.0465,N,07105.5150,W,1,10,1.0,13.1,M,-33.8,M,,0000*50
"
1713987712.085117,593,1713987712,0,GPS1_FRAME,42.33410833333333,-71.09191666666666,13.1,327658.0322396194,4688992.269989781,19,T,1.0,"$GPGGA,194152.000,4220.0465,N,07105.5150,W,1,10,1.0,13.1,M,-33.8,M,,0000*53
"
1713987713.0852053,594,1713987713,0,GPS1_FRAME,42.33410833333333,-71.09191666666666,13.1,327658.0322396194,4688992.269989781,19,T,1.0,"$GPGGA,194153.000,4220.0465,N,07105.5150,W,1,10,1.0,13.1,M,-33.8,M,,0000*52
"
1713987714.0858257,595,1713987714,0,GPS1_FRAME,42.33410833333333,-71.09191666666666,13.1,327658.0322396194,4688992.269989781,19,T,1.0,"$GPGGA,194154.000,4220.0465,N,07105.5150,W,1,10,1.0,13.1,M,-33.8,M,,0000*55
"
1713987715.0856318,596,1713987715,0,GPS1_FRAME,42.33410833333333,-71.09191666666666,13.1,327658.0322396194,4688992.269989781,19,T,1.0,"$GPGGA,194155.000,4220.0465,N,07105.5150,W,1,10,1.0,13.1,M,-33.8,M,,0000*54
"
1713987716.085464,597,1713987716,0,GPS1_FRAME,42.33410833333333,-71.09191666666666,13.1,327658.0322396194,4688992.269989781,19,T,1.0,"$GPGGA,194156.000,4220.0465,N,07105.5150,W,1,10,1.0,13.1,M,-33.8,M,,0000*57
"
1713987717.0848587,598,1713987717,0,GPS1_FRAME,42.33410833333333,-71.09191666666666,13.1,327658.0322396194,4688992.269989781,19,T,1.0,"$GPGGA,194157.000,4220.0465,N,07105.5150,W,1,10,1.0,13.1,M,-33.8,M,,0000*56
"
1713987718.084728,599,1713987718,0,GPS1_FRAME,42.33410833333333,-71.09191666666666,13.1,327658.0322396194,4688992.269989781,19,T,1.0,"$GPGGA,194158.000,4220.0465,N,07105.5150,W,1,10,1.0,13.1,M,-33.8,M,,0000*59
"
1713987719.085109,600,1713987719,0,GPS1_FRAME,42.33410833333333,-71.09191666666666,13.1,327658.0322396194,4688992.269989781,19,T,1.0,"$GPGGA,194159.000,4220.0465,N,07105.5150,W,1,10,1.0,13.1,M,-33.8,M,,0000*58
"
1713987720.0867503,601,1713987720,0,GPS1_FRAME,42.33410833333333,-71.09191666666666,13.1,327658.0322396194,4688992.269989781,19,T,1.0,"$GPGGA,194200.000,4220.0465,N,07105.5150,W,1,10,1.0,13.1,M,-33.8,M,,0000*57
"
1713987721.084908,602,1713987721,0,GPS1_FRAME,42.33410833333333,-71.09191666666666,13.1,327658.0322396194,4688992.269989781,19,T,1.0,"$GPGGA,194201.000,4220.0465,N,07105.5150,W,1,10,1.0,13.1,M,-33.8,M,,0000*56
"
1713987722.0848193,603,1713987722,0,GPS1_FRAME,42.33410833333333,-71.09191666666666,13.1,327658.0322396194,4688992.269989781,19,T,1.0,"$GPGGA,194202.000,4220.0465,N,07105.5150,W,1,10,1.0,13.1,M,-33.8,M,,0000*55
"
1713987723.086089,604,1713987723,0,GPS1_FRAME,42.33410833333333,-71.09191666666666,13.3,327658.0322396194,4688992.269989781,19,T,1.0,"$GPGGA,194203.000,4220.0465,N,07105.5150,W,1,10,1.0,13.3,M,-33.8,M,,0000*56
"
1713987724.0867245,605,1713987724,0,GPS1_FRAME,42.33410833333333,-71.09191666666666,13.3,327658.0322396194,4688992.269989781,19,T,1.0,"$GPGGA,194204.000,4220.0465,N,07105.5150,W,1,10,1.0,13.3,M,-33.8,M,,0000*51
"
1713987725.085201,606,1713987725,0,GPS1_FRAME,42.33410833333333,-71.09191666666666,13.3,327658.0322396194,4688992.269989781,19,T,1.0,"$GPGGA,194205.000,4220.0465,N,07105.5150,W,1,10,1.0,13.3,M,-33.8,M,,0000*50
"
1713987726.085275,607,1713987726,0,GPS1_FRAME,42.33410833333333,-71.09191666666666,13.3,327658.0322396194,4688992.269989781,19,T,1.0,"$GPGGA,194206.000,4220.0465,N,07105.5150,W,1,10,1.0,13.3,M,-33.8,M,,0000*53
"
1713987727.0858693,608,1713987727,0,GPS1_FRAME,42.33410833333333,-71.09191666666666,13.3,327658.0322396194,4688992.269989781,19,T,1.0,"$GPGGA,194207.000,4220.0465,N,07105.5150,W,1,10,1.0,13.3,M,-33.8,M,,0000*52
"
1713987728.0853384,609,1713987728,0,GPS1_FRAME,42.33410833333333,-71.09191666666666,13.3,327658.0322396194,4688992.269989781,19,T,1.0,"$GPGGA,194208.000,4220.0465,N,07105.5150,W,1,10,1.0,13.3,M,-33.8,M,,0000*5D
"
1713987729.0844102,610,1713987729,0,GPS1_FRAME,42.33410833333333,-71.09191666666666,13.3,327658.0322396194,4688992.269989781,19,T,1.0,"$GPGGA,194209.000,4220.0465,N,07105.5150,W,1,10,1.0,13.3,M,-33.8,M,,0000*5C
"
1713987730.0846543,611,1713987730,0,GPS1_FRAME,42.33410833333333,-71.09191666666666,13.3,327658.0322396194,4688992.269989781,19,T,1.0,"$GPGGA,194210.000,4220.0465,N,07105.5150,W,1,10,1.0,13.3,M,-33.8,M,,0000*54
"
1713987731.0858526,612,1713987731,0,GPS1_FRAME,42.33410833333333,-71.09191666666666,13.3,327658.0322396194,4688992.269989781,19,T,1.0,"$GPGGA,194211.000,4220.0465,N,07105.5150,W,1,10,1.0,13.3,M,-33.8,M,,0000*55
"
1713987732.0865905,613,1713987732,0,GPS1_FRAME,42.33410833333333,-71.09191666666666,13.3,327658.0322396194,4688992.269989781,19,T,1.0,"$GPGGA,194212.000,4220.0465,N,07105.5150,W,1,10,1.0,13.3,M,-33.8,M,,0000*56
"
1713987733.0856006,614,1713987733,0,GPS1_FRAME,42.33410833333333,-71.09191666666666,13.3,327658.0322396194,4688992.269989781,19,T,1.0,"$GPGGA,194213.000,4220.0465,N,07105.5150,W,1,10,1.0,13.3,M,-33.8,M,,0000*57
"
1713987734.0854504,615,1713987734,0,GPS1_FRAME,42.33410833333333,-71.09191666666666,13.3,327658.0322396194,4688992.269989781,19,T,1.0,"$GPGGA,194214.000,4220.0465,N,07105.5150,W,1,10,1.0,13.3,M,-33.8,M,,0000*50
"
1713987735.0869348,616,1713987735,0,GPS1_FRAME,42.33410833333333,-71.09191666666666,13.3,327658.0322396194,4688992.269989781,19,T,1.0,"$GPGGA,194215.000,4220.0465,N,07105.5150,W,1,10,1.0,13.3,M,-33.8,M,,0000*51
"
1713987736.084484,617,1713987736,0,GPS1_FRAME,42.33410833333333,-71.09191666666666,13.3,327658.0322396194,4688992.269989781,19,T,1.0,"$GPGGA,194216.000,4220.0465,N,07105.5150,W,1,10,1.0,13.3,M,-33.8,M,,0000*52
"
1713987737.0839174,618,1713987737,0,GPS1_FRAME,42.33410833333333,-71.09191666666666,13.3,327658.0322396194,4688992.269989781,19,T,1.0,"$GPGGA,194217.000,4220.0465,N,07105.5150,W,1,10,1.0,13.3,M,-33.8,M,,0000*53
"
1713987738.0851238,619,1713987738,0,GPS1_FRAME,42.33410833333333,-71.09191666666666,13.3,327658.0322396194,4688992.269989781,19,T,1.0,"$GPGGA,194218.000,4220.0465,N,07105.5150,W,1,10,1.0,13.3,M,-33.8,M,,0000*5C
"
1713987739.084436,620,1713987739,0,GPS1_FRAME,42.33410833333333,-71.09191666666666,13.3,327658.0322396194,4688992.269989781,19,T,1.0,"$GPGGA,194219.000,4220.0465,N,07105.5150,W,1,10,1.0,13.3,M,-33.8,M,,0000*5D
"
1713987740.0841186,621,1713987740,0,GPS1_FRAME,42.33410833333333,-71.09191666666666,13.3,327658.0322396194,4688992.269989781,19,T,1.0,"$GPGGA,194220.000,4220.0465,N,07105.5150,W,1,10,1.0,13.3,M,-33.8,M,,0000*57
"
1713987741.084706,622,1713987741,0,GPS1_FRAME,42.33410833333333,-71.09191666666666,13.3,327658.0322396194,4688992.269989781,19,T,1.0,"$GPGGA,194221.000,4220.0465,N,07105.5150,W,1,10,1.0,13.3,M,-33.8,M,,0000*56
"
1713987742.083664,623,1713987742,0,GPS1_FRAME,42.33410666666666,-71.09191333333334,13.3,327658.3023142855,4688992.078163566,19,T,1.0,"$GPGGA,194222.000,4220.0464,N,07105.5148,W,1,10,1.0,13.3,M,-33.8,M,,0000*5D
"
1713987743.0839236,624,1713987743,0,GPS1_FRAME,42.33410666666666,-71.09190833333334,13.1,327658.71425520326,4688992.068030129,19,T,1.0,"$GPGGA,194223.000,4220.0464,N,07105.5145,W,1,10,1.0,13.1,M,-33.8,M,,0000*53
"
1713987744.0852072,625,1713987744,0,GPS1_FRAME,42.33410666666666,-71.091905,12.9,327658.98888248106,4688992.061274517,19,T,1.0,"$GPGGA,194224.000,4220.0464,N,07105.5143,W,1,10,1.0,12.9,M,-33.8,M,,0000*5B
"
1713987745.0842068,626,1713987745,0,GPS1_FRAME,42.334105,-71.091905,12.8,327658.9843298969,4688991.87620394,19,T,1.0,"$GPGGA,194225.000,4220.0463,N,07105.5143,W,1,10,1.0,12.8,M,-33.8,M,,0000*5C
"
1713987746.0805242,627,1713987746,0,GPS1_FRAME,42.33410666666666,-71.09190333333333,12.7,327659.1261961189,4688992.0578967165,19,T,1.0,"$GPGGA,194226.000,4220.0464,N,07105.5142,W,1,09,1.0,12.7,M,-33.8,M,,0000*5E
"
1713987747.0849504,628,1713987747,0,GPS1_FRAME,42.33411,-71.0919,12.7,327659.4099285436,4688992.421282276,19,T,1.0,"$GPGGA,194227.000,4220.0466,N,07105.5140,W,1,10,1.0,12.7,M,-33.8,M,,0000*57
"
1713987748.0848258,629,1713987748,0,GPS1_FRAME,42.33411666666667,-71.091895,12.8,327659.8400796894,4688993.151431213,19,T,1.0,"$GPGGA,194228.000,4220.0470,N,07105.5137,W,1,10,1.0,12.8,M,-33.8,M,,0000*50
"
1713987749.0842218,630,1713987749,0,GPS1_FRAME,42.33412166666667,-71.09189,12.9,327660.2656781974,4688993.696509599,19,T,1.0,"$GPGGA,194229.000,4220.0473,N,07105.5134,W,1,10,1.0,12.9,M,-33.8,M,,0000*50
"
1713987750.0848553,631,1713987750,0,GPS1_FRAME,42.334125,-71.09188833333333,13.1,327660.4120969033,4688994.063272974,19,T,1.0,"$GPGGA,194230.000,4220.0475,N,07105.5133,W,1,10,1.0,13.1,M,-33.8,M,,0000*50
"
1713987751.0850518,632,1713987751,0,GPS1_FRAME,42.33413,-71.091885,13.2,327660.7003817264,4688994.611729163,19,T,1.0,"$GPGGA,194231.000,4220.0478,N,07105.5131,W,1,10,1.0,13.2,M,-33.8,M,,0000*5D
"
1713987752.085299,633,1713987752,0,GPS1_FRAME,42.334133333333334,-71.09188333333333,13.2,327660.8468003938,4688994.978492548,19,T,1.0,"$GPGGA,194232.000,4220.0480,N,07105.5130,W,1,10,1.0,13.2,M,-33.8,M,,0000*58
"
1713987753.084226,634,1713987753,0,GPS1_FRAME,42.334136666666666,-71.09188,13.2,327661.13053261745,4688995.341878173,19,T,1.0,"$GPGGA,194233.000,4220.0482,N,07105.5128,W,1,10,1.0,13.2,M,-33.8,M,,0000*52
"
1713987754.0849574,635,1713987754,0,GPS1_FRAME,42.33414,-71.091875,13.2,327661.5515783817,4688995.701886051,19,T,1.0,"$GPGGA,194234.000,4220.0484,N,07105.5125,W,1,10,1.0,13.2,M,-33.8,M,,0000*5E
"
1713987755.0858243,636,1713987755,0,GPS1_FRAME,42.33414333333333,-71.09187166666666,13.1,327661.83531054313,4688996.065271703,19,T,1.0,"$GPGGA,194235.000,4220.0486,N,07105.5123,W,1,10,1.0,13.1,M,-33.8,M,,0000*58
"
1713987756.0855305,637,1713987756,0,GPS1_FRAME,42.33414833333333,-71.09186666666666,13.2,327662.2609087308,4688996.610350202,19,T,1.0,"$GPGGA,194236.000,4220.0489,N,07105.5120,W,1,10,1.0,13.2,M,-33.8,M,,0000*54
"
1713987757.0841763,638,1713987757,0,GPS1_FRAME,42.33415166666666,-71.09186,13.1,327662.8192679018,4688996.966980414,19,T,1.0,"$GPGGA,194237.000,4220.0491,N,07105.5116,W,1,10,1.0,13.1,M,-33.8,M,,0000*5A
"
1713987758.0848026,639,1713987758,0,GPS1_FRAME,42.334158333333335,-71.09185333333333,13.1,327663.38673196745,4688997.693751827,19,T,1.0,"$GPGGA,194238.000,4220.0495,N,07105.5112,W,1,10,1.0,13.1,M,-33.8,M,,0000*55
"
1713987759.0851152,640,1713987759,0,GPS1_FRAME,42.334163333333336,-71.091845,13.1,327664.08695696853,4688998.232074996,19,T,1.0,"$GPGGA,194239.000,4220.0498,N,07105.5107,W,1,10,1.0,13.1,M,-33.8,M,,0000*5D
"
1713987760.0844166,641,1713987760,0,GPS1_FRAME,42.33417,-71.09183833333333,13.1,327664.6544208053,4688998.958846505,19,T,1.0,"$GPGGA,194240.000,4220.0502,N,07105.5103,W,1,10,1.0,13.1,M,-33.8,M,,0000*55
"
1713987761.0837238,642,1713987761,0,GPS1_FRAME,42.334175,-71.09183,13.2,327665.35464558576,4688999.4971697945,19,T,1.0,"$GPGGA,194241.000,4220.0505,N,07105.5098,W,1,10,1.0,13.2,M,-33.8,M,,0000*53
"
1713987762.084544,643,1713987762,0,GPS1_FRAME,42.334181666666666,-71.09182333333334,13.2,327665.9221091918,4689000.2239414,19,T,1.0,"$GPGGA,194242.000,4220.0509,N,07105.5094,W,1,10,1.0,13.2,M,-33.8,M,,0000*50
"
1713987763.0838895,644,1713987763,0,GPS1_FRAME,42.33419,-71.09182,13.0,327666.2194981736,4689001.142538955,19,T,1.0,"$GPGGA,194243.000,4220.0514,N,07105.5092,W,1,10,1.0,13.0,M,-33.8,M,,0000*59
"
1713987764.08323,645,1713987764,0,GPS1_FRAME,42.334196666666664,-71.09181333333333,13.0,327666.78696156666,4689001.869310626,19,T,1.0,"$GPGGA,194244.000,4220.0518,N,07105.5088,W,1,10,1.0,13.0,M,-33.8,M,,0000*59
"
1713987765.082778,646,1713987765,0,GPS1_FRAME,42.334203333333335,-71.09181,12.9,327667.0797979928,4689002.602837636,19,T,1.0,"$GPGGA,194245.000,4220.0522,N,07105.5086,W,1,10,1.0,12.9,M,-33.8,M,,0000*57
"
1713987766.0839396,647,1713987766,0,GPS1_FRAME,42.33421,-71.091805,12.8,327667.50994777493,4689003.332987013,19,T,1.0,"$GPGGA,194246.000,4220.0526,N,07105.5083,W,1,10,1.0,12.8,M,-33.8,M,,0000*54
"
1713987767.0828202,648,1713987767,0,GPS1_FRAME,42.33421666666667,-71.0918,12.7,327667.94009747216,4689004.063136416,19,T,1.0,"$GPGGA,194247.000,4220.0530,N,07105.5080,W,1,10,1.0,12.7,M,-33.8,M,,0000*5E
"
1713987768.0837178,649,1713987768,0,GPS1_FRAME,42.334223333333334,-71.09179333333333,12.7,327668.5075604694,4689004.789908216,19,T,1.0,"$GPGGA,194248.000,4220.0534,N,07105.5076,W,1,10,1.0,12.7,M,-33.8,M,,0000*5C
"
1713987769.0818348,650,1713987769,0,GPS1_FRAME,42.33423,-71.09178666666666,12.8,327669.0750233525,4689005.51668006,19,T,1.0,"$GPGGA,194249.000,4220.0538,N,07105.5072,W,1,10,1.0,12.8,M,-33.8,M,,0000*5A
"
1713987770.0827718,651,1713987770,0,GPS1_FRAME,42.33423833333333,-71.09178,12.8,327669.647038445,4689006.428522527,19,T,1.0,"$GPGGA,194250.000,4220.0543,N,07105.5068,W,1,10,1.0,12.8,M,-33.8,M,,0000*55
"
1713987771.0836148,652,1713987771,0,GPS1_FRAME,42.334245,-71.09177166666667,13.0,327670.3518144194,4689007.15191687,19,T,1.0,"$GPGGA,194251.000,4220.0547,N,07105.5063,W,1,10,1.0,13.0,M,-33.8,M,,0000*52
"
1713987772.0821087,653,1713987772,0,GPS1_FRAME,42.334253333333336,-71.091765,13.1,327670.92382922384,4689008.063759435,19,T,1.0,"$GPGGA,194252.000,4220.0552,N,07105.5059,W,1,10,1.0,13.1,M,-33.8,M,,0000*5D
"
1713987773.0821154,654,1713987773,0,GPS1_FRAME,42.33426333333333,-71.09175833333333,13.3,327671.50039616495,4689009.160672624,19,T,1.0,"$GPGGA,194253.000,4220.0558,N,07105.5055,W,1,10,1.0,13.3,M,-33.8,M,,0000*58
"
1713987774.0832348,655,1713987774,0,GPS1_FRAME,42.334273333333336,-71.09174833333333,13.4,327672.3515894839,4689010.250830747,19,T,1.0,"$GPGGA,194254.000,4220.0564,N,07105.5049,W,1,10,1.0,13.4,M,-33.8,M,,0000*5A
"
1713987775.083203,656,1713987775,0,GPS1_FRAME,42.33428333333333,-71.09174,13.3,327673.06546929444,4689011.344366505,19,T,1.0,"$GPGGA,194255.000,4220.0570,N,07105.5044,W,1,10,1.0,13.3,M,-33.8,M,,0000*54
"
1713987776.083485,657,1713987776,0,GPS1_FRAME,42.334293333333335,-71.09173333333334,12.9,327673.64203566033,4689012.441279859,19,T,1.0,"$GPGGA,194256.000,4220.0576,N,07105.5040,W,1,10,1.0,12.9,M,-33.8,M,,0000*5E
"
1713987777.0827923,658,1713987777,0,GPS1_FRAME,42.33430166666667,-71.09172833333334,12.8,327674.07673643454,4689013.356500192,19,T,1.0,"$GPGGA,194257.000,4220.0581,N,07105.5037,W,1,10,1.0,12.8,M,-33.8,M,,0000*56
"
1713987778.082578,659,1713987778,0,GPS1_FRAME,42.33431,-71.09172333333333,12.7,327674.5114371013,4689014.271720549,19,T,1.0,"$GPGGA,194258.000,4220.0586,N,07105.5034,W,1,10,1.0,12.7,M,-33.8,M,,0000*52
"
1713987779.0818443,660,1713987779,0,GPS1_FRAME,42.33432,-71.091715,12.6,327675.225316204,4689015.3652565135,19,T,1.0,"$GPGGA,194259.000,4220.0592,N,07105.5029,W,1,10,1.0,12.6,M,-33.8,M,,0000*5B
"
1713987780.0859554,661,1713987780,0,GPS1_FRAME,42.33433333333333,-71.09170666666667,12.7,327675.94829943776,4689016.828933707,19,T,1.0,"$GPGGA,194300.000,4220.0600,N,07105.5024,W,1,10,1.0,12.7,M,-33.8,M,,0000*52
"
1713987781.0834947,662,1713987781,0,GPS1_FRAME,42.33434,-71.09169666666666,12.7,327676.79038690065,4689017.548951172,19,T,1.0,"$GPGGA,194301.000,4220.0604,N,07105.5018,W,1,10,1.0,12.7,M,-33.8,M,,0000*58
"
1713987782.0850298,663,1713987782,0,GPS1_FRAME,42.33434833333333,-71.091685,12.6,327677.7743394304,4689018.450661865,19,T,1.0,"$GPGGA,194302.000,4220.0609,N,07105.5011,W,1,10,1.0,12.6,M,-33.8,M,,0000*5E
"
1713987783.0859306,664,1713987783,0,GPS1_FRAME,42.334356666666665,-71.091675,12.7,327678.6209786156,4689019.355750121,19,T,1.0,"$GPGGA,194303.000,4220.0614,N,07105.5005,W,1,10,1.0,12.7,M,-33.8,M,,0000*57
"
1713987784.084448,665,1713987784,0,GPS1_FRAME,42.334363333333336,-71.09166333333333,12.9,327679.60037858086,4689020.072390478,19,T,1.0,"$GPGGA,194304.000,4220.0618,N,07105.4998,W,1,10,1.0,12.9,M,-33.8,M,,0000*5E
"
1713987785.083805,666,1713987785,0,GPS1_FRAME,42.33437166666667,-71.09165166666666,12.9,327680.58433040004,4689020.97410155,19,T,1.0,"$GPGGA,194305.000,4220.0623,N,07105.4991,W,1,10,1.0,12.9,M,-33.8,M,,0000*5E
"
1713987786.0847824,667,1713987786,0,GPS1_FRAME,42.334381666666665,-71.09163833333334,13.0,327681.71014703566,4689022.057505957,19,T,1.0,"$GPGGA,194306.000,4220.0629,N,07105.4983,W,1,10,1.0,13.0,M,-33.8,M,,0000*5C
"
1713987787.085756,668,1713987787,0,GPS1_FRAME,42.33439,-71.09162333333333,13.2,327682.96872434823,4689022.952462602,19,T,1.0,"$GPGGA,194307.000,4220.0634,N,07105.4974,W,1,10,1.0,13.2,M,-33.8,M,,0000*5B
"
1713987788.0838842,669,1713987788,0,GPS1_FRAME,42.3344,-71.09160833333334,13.3,327684.231853298,4689024.032490049,19,T,1.0,"$GPGGA,194308.000,4220.0640,N,07105.4965,W,1,10,1.0,13.3,M,-33.8,M,,0000*56
"
1713987789.0844219,670,1713987789,0,GPS1_FRAME,42.334408333333336,-71.09159333333334,13.4,327685.4904299302,4689024.927447129,19,T,1.0,"$GPGGA,194309.000,4220.0645,N,07105.4956,W,1,10,1.0,13.4,M,-33.8,M,,0000*55
"
1713987790.0837986,671,1713987790,0,GPS1_FRAME,42.334415,-71.09158,13.4,327686.6071413728,4689025.640711127,19,T,1.0,"$GPGGA,194310.000,4220.0649,N,07105.4948,W,1,10,1.0,13.4,M,-33.8,M,,0000*5E
"
1713987791.0853038,672,1713987791,0,GPS1_FRAME,42.334421666666664,-71.09156833333333,13.5,327687.58653963567,4689026.357352556,19,T,1.0,"$GPGGA,194311.000,4220.0653,N,07105.4941,W,1,10,1.0,13.5,M,-33.8,M,,0000*5C
"
1713987792.0861104,673,1713987792,0,GPS1_FRAME,42.33443333333334,-71.09155666666666,13.6,327688.5795932587,4689027.629205865,19,T,1.0,"$GPGGA,194312.000,4220.0660,N,07105.4934,W,1,10,1.0,13.6,M,-33.8,M,,0000*5E
"
1713987793.0826623,674,1713987793,0,GPS1_FRAME,42.33444166666666,-71.09154666666667,13.7,327689.4262299659,4689028.534295364,19,T,1.0,"$GPGGA,194313.000,4220.0665,N,07105.4928,W,1,10,1.0,13.7,M,-33.8,M,,0000*56
"
1713987794.0819,675,1713987794,0,GPS1_FRAME,42.334446666666665,-71.09153666666667,13.5,327690.2637628347,4689029.069243796,19,T,1.0,"$GPGGA,194314.000,4220.0668,N,07105.4922,W,1,10,1.0,13.5,M,-33.8,M,,0000*54
"
1713987795.0844014,676,1713987795,0,GPS1_FRAME,42.334453333333336,-71.091525,13.4,327691.2431602457,4689029.785885716,19,T,1.0,"$GPGGA,194315.000,4220.0672,N,07105.4915,W,1,10,1.0,13.4,M,-33.8,M,,0000*5B
"
1713987796.0835655,677,1713987796,0,GPS1_FRAME,42.33446,-71.09151666666666,13.4,327691.9479317253,4689030.50928212,19,T,1.0,"$GPGGA,194316.000,4220.0676,N,07105.4910,W,1,10,1.0,13.4,M,-33.8,M,,0000*59
"
1713987797.0825222,678,1713987797,0,GPS1_FRAME,42.334466666666664,-71.09151,13.2,327692.5153902093,4689031.236055755,19,T,1.0,"$GPGGA,194317.000,4220.0680,N,07105.4906,W,1,10,1.0,13.2,M,-33.8,M,,0000*50
"
1713987798.0830467,679,1713987798,0,GPS1_FRAME,42.334475,-71.09150333333334,13.1,327693.0874003187,4689032.147900019,19,T,1.0,"$GPGGA,194318.000,4220.0685,N,07105.4902,W,1,10,1.0,13.1,M,-33.8,M,,0000*5D
"
1713987799.0810924,680,1713987799,0,GPS1_FRAME,42.33448333333333,-71.091495,13.0,327693.7967231022,4689033.05636718,19,T,1.0,"$GPGGA,194319.000,4220.0690,N,07105.4897,W,1,09,1.0,13.0,M,-33.8,M,,0000*5C
"
1713987800.0840726,681,1713987800,0,GPS1_FRAME,42.334491666666665,-71.09148666666667,13.0,327694.5060457075,4689033.964834408,19,T,1.0,"$GPGGA,194320.000,4220.0695,N,07105.4892,W,1,10,1.0,13.0,M,-33.8,M,,0000*5E
"
1713987801.083627,682,1713987801,0,GPS1_FRAME,42.33450166666667,-71.09147833333333,13.1,327695.219919824,4689035.058372291,19,T,1.0,"$GPGGA,194321.000,4220.0701,N,07105.4887,W,1,10,1.0,13.1,M,-33.8,M,,0000*56
"
1713987802.0830846,683,1713987802,0,GPS1_FRAME,42.33450833333333,-71.09147166666666,13.1,327695.7873776242,4689035.785146175,19,T,1.0,"$GPGGA,194322.000,4220.0705,N,07105.4883,W,1,10,1.0,13.1,M,-33.8,M,,0000*55
"
1713987803.081526,684,1713987803,0,GPS1_FRAME,42.334516666666666,-71.091465,13.1,327696.35938697204,4689036.696990688,19,T,1.0,"$GPGGA,194323.000,4220.0710,N,07105.4879,W,1,09,1.0,13.1,M,-33.8,M,,0000*5D
"
1713987804.0824337,685,1713987804,0,GPS1_FRAME,42.33452666666667,-71.09145833333334,13.1,327696.93594782404,4689037.793905831,19,T,1.0,"$GPGGA,194324.000,4220.0716,N,07105.4875,W,1,10,1.0,13.1,M,-33.8,M,,0000*58
"
1713987805.0815022,686,1713987805,0,GPS1_FRAME,42.334536666666665,-71.09145,13.1,327697.6498212062,4689038.887443941,19,T,1.0,"$GPGGA,194325.000,4220.0722,N,07105.4870,W,1,10,1.0,13.1,M,-33.8,M,,0000*5B
"
1713987806.0816274,687,1713987806,0,GPS1_FRAME,42.33454666666667,-71.09144166666667,13.1,327698.3636943755,4689039.98098212,19,T,1.0,"$GPGGA,194326.000,4220.0728,N,07105.4865,W,1,10,1.0,13.1,M,-33.8,M,,0000*56
"
1713987807.0834596,688,1713987807,0,GPS1_FRAME,42.334555,-71.09143333333333,13.0,327699.07301573566,4689040.889449784,19,T,1.0,"$GPGGA,194327.000,4220.0733,N,07105.4860,W,1,10,1.0,13.0,M,-33.8,M,,0000*59
"
1713987808.0832217,689,1713987808,0,GPS1_FRAME,42.334563333333335,-71.09142666666666,13.0,327699.6450242785,4689041.8012945475,19,T,1.0,"$GPGGA,194328.000,4220.0738,N,07105.4856,W,1,10,1.0,13.0,M,-33.8,M,,0000*58
"
1713987809.0838585,690,1713987809,0,GPS1_FRAME,42.33457166666667,-71.09141833333334,12.9,327700.3543452983,4689042.70976233,19,T,1.0,"$GPGGA,194329.000,4220.0743,N,07105.4851,W,1,10,1.0,12.9,M,-33.8,M,,0000*5A
"
1713987810.0833921,691,1713987810,0,GPS1_FRAME,42.33458,-71.09141333333334,12.8,327700.78904093686,4689043.624984204,19,T,1.0,"$GPGGA,194330.000,4220.0748,N,07105.4848,W,1,10,1.0,12.8,M,-33.8,M,,0000*50
"
1713987811.0832183,692,1713987811,0,GPS1_FRAME,42.334588333333336,-71.091405,12.8,327701.4983616387,4689044.533452096,19,T,1.0,"$GPGGA,194331.000,4220.0753,N,07105.4843,W,1,10,1.0,12.8,M,-33.8,M,,0000*50
"
1713987812.0830374,693,1713987812,0,GPS1_FRAME,42.334595,-71.09139833333333,12.7,327702.06581807276,4689045.260226459,19,T,1.0,"$GPGGA,194332.000,4220.0757,N,07105.4839,W,1,10,1.0,12.7,M,-33.8,M,,0000*55
"
1713987813.0833502,694,1713987813,0,GPS1_FRAME,42.334603333333334,-71.09138833333333,12.6,327702.9124510054,4689046.165317499,19,T,1.0,"$GPGGA,194333.000,4220.0762,N,07105.4833,W,1,10,1.0,12.6,M,-33.8,M,,0000*59
"
1713987814.082916,695,1713987814,0,GPS1_FRAME,42.33461333333333,-71.09138,12.6,327703.62632267503,4689047.25885618,19,T,1.0,"$GPGGA,194334.000,4220.0768,N,07105.4828,W,1,10,1.0,12.6,M,-33.8,M,,0000*5E
"
1713987815.0837111,696,1713987815,0,GPS1_FRAME,42.33462,-71.09137,12.5,327704.46840371366,4689047.978876812,19,T,1.0,"$GPGGA,194335.000,4220.0772,N,07105.4822,W,1,10,1.0,12.5,M,-33.8,M,,0000*5D
"
1713987816.083888,697,1713987816,0,GPS1_FRAME,42.334628333333335,-71.09136,12.5,327705.3150360205,4689048.883968128,19,T,1.0,"$GPGGA,194336.000,4220.0777,N,07105.4816,W,1,10,1.0,12.5,M,-33.8,M,,0000*5C
"
1713987817.083411,698,1713987817,0,GPS1_FRAME,42.33463666666667,-71.09135,12.5,327706.1616681127,4689049.789059539,19,T,1.0,"$GPGGA,194337.000,4220.0782,N,07105.4810,W,1,10,1.0,12.5,M,-33.8,M,,0000*51
"
1713987818.0835662,699,1713987818,0,GPS1_FRAME,42.334646666666664,-71.09134333333333,12.4,327706.73822647735,4689050.885975432,19,T,1.0,"$GPGGA,194338.000,4220.0788,N,07105.4806,W,1,10,1.0,12.4,M,-33.8,M,,0000*52
"
1713987819.0843937,700,1713987819,0,GPS1_FRAME,42.334655,-71.091335,12.3,327707.447545717,4689051.79444389,19,T,1.0,"$GPGGA,194339.000,4220.0793,N,07105.4801,W,1,10,1.0,12.3,M,-33.8,M,,0000*59
"
1713987820.0840144,701,1713987820,0,GPS1_FRAME,42.33466333333333,-71.09132833333334,12.2,327708.0195523559,4689052.706289295,19,T,1.0,"$GPGGA,194340.000,4220.0798,N,07105.4797,W,1,10,1.0,12.2,M,-33.8,M,,0000*5D
"
1713987821.083079,702,1713987821,0,GPS1_FRAME,42.334673333333335,-71.09132166666667,12.2,327708.59611021844,4689053.803205328,19,T,1.0,"$GPGGA,194341.000,4220.0804,N,07105.4793,W,1,10,1.0,12.2,M,-33.8,M,,0000*52
"
1713987822.083664,703,1713987822,0,GPS1_FRAME,42.33468333333333,-71.09131333333333,12.2,327709.3099802905,4689054.896744551,19,T,1.0,"$GPGGA,194342.000,4220.0810,N,07105.4788,W,1,10,1.0,12.2,M,-33.8,M,,0000*5E
"
1713987823.083819,704,1713987823,0,GPS1_FRAME,42.334691666666664,-71.09130666666667,12.2,327709.8819864582,4689055.808590096,19,T,1.0,"$GPGGA,194343.000,4220.0815,N,07105.4784,W,1,10,1.0,12.2,M,-33.8,M,,0000*56
"
1713987824.0840235,705,1713987824,0,GPS1_FRAME,42.334698333333336,-71.0913,12.2,327710.4494411659,4689056.535365097,19,T,1.0,"$GPGGA,194344.000,4220.0819,N,07105.4780,W,1,10,1.0,12.2,M,-33.8,M,,0000*59
"
1713987825.0835614,706,1713987825,0,GPS1_FRAME,42.334705,-71.091295,12.3,327710.8795834323,4689057.265516965,19,T,1.0,"$GPGGA,194345.000,4220.0823,N,07105.4777,W,1,10,1.0,12.3,M,-33.8,M,,0000*58
"
1713987826.0808082,707,1713987826,0,GPS1_FRAME,42.334711666666664,-71.09128833333334,12.4,327711.44703792647,4689057.992292041,19,T,1.0,"$GPGGA,194346.000,4220.0827,N,07105.4773,W,1,09,1.0,12.4,M,-33.8,M,,0000*54
"
1713987827.0842876,708,1713987827,0,GPS1_FRAME,42.334718333333335,-71.09128166666666,12.3,327712.0144923086,4689058.719067163,19,T,1.0,"$GPGGA,194347.000,4220.0831,N,07105.4769,W,1,10,1.0,12.3,M,-33.8,M,,0000*56
"
1713987828.0842683,709,1713987828,0,GPS1_FRAME,42.33472166666667,-71.091275,12.4,327712.5728440447,4689059.075701151,19,T,1.0,"$GPGGA,194348.000,4220.0833,N,07105.4765,W,1,10,1.0,12.4,M,-33.8,M,,0000*50
"
1713987829.0828285,710,1713987829,0,GPS1_FRAME,42.334723333333336,-71.09126833333333,12.6,327713.12664447154,4689059.247264594,19,T,1.0,"$GPGGA,194349.000,4220.0834,N,07105.4761,W,1,10,1.0,12.6,M,-33.8,M,,0000*50
"
1713987830.084004,711,1713987830,0,GPS1_FRAME,42.33472166666667,-71.09126,12.7,327713.80865468597,4689059.045310138,19,T,1.0,"$GPGGA,194350.000,4220.0833,N,07105.4756,W,1,10,1.0,12.7,M,-33.8,M,,0000*5A
"
1713987831.0849836,712,1713987831,0,GPS1_FRAME,42.33472,-71.09125,12.8,327714.627977237,4689058.839978997,19,T,1.0,"$GPGGA,194351.000,4220.0832,N,07105.4750,W,1,10,1.0,12.8,M,-33.8,M,,0000*53
"
1713987832.0848434,713,1713987832,0,GPS1_FRAME,42.334716666666665,-71.09124166666666,13.0,327715.30543633644,4689058.4529541,19,T,1.0,"$GPGGA,194352.000,4220.0830,N,07105.4745,W,1,10,1.0,13.0,M,-33.8,M,,0000*5F
"
1713987833.084209,714,1713987833,0,GPS1_FRAME,42.334715,-71.091235,13.5,327715.8501343761,4689058.254376587,19,T,1.0,"$GPGGA,194353.000,4220.0829,N,07105.4741,W,1,10,1.0,13.5,M,-33.8,M,,0000*57
"
1713987834.0849614,715,1713987834,0,GPS1_FRAME,42.334715,-71.09123166666667,13.7,327716.12475899013,4689058.24762314,19,T,1.0,"$GPGGA,194354.000,4220.0829,N,07105.4739,W,1,10,1.0,13.7,M,-33.8,M,,0000*5D
"
